id,osm_id,name,number,street,postal_code,city,country,country_code,status,lat,lon,website,phone,fax,year,payant,gratuit,date,tags,description
6732401,,Maison de l'Archéologie des Vosges du Nord,,,,NIEDERBRONN-LES-BAINS,France,fr,open,,,,,,2014,2008,680,01/02/2003,label:musee de france,
6748207,22290183,Musée Historique,2,Rue du Vieux Marché aux Poissons,67065,Strasbourg,France,fr,open,48.579946,7.750767983802181,,,,2014,20463,26785,01/02/2003,label:musee de france,
6748213,486650189,Musée Tomi Ungerer,,Rue Joseph Massol,67073,Strasbourg,France,fr,open,48.58570885,7.755036989998281,,,,2014,20175,20566,18/04/2008,label:musee de france,
6755001,2176631839,Musée de la Bataille du 6 Août 1870,,Cour du Château,67360,Wœrth,France,fr,open,48.9388096,7.7472595,,,,2014,0,50,01/02/2003,label:musee de france,
6806603,47576073,Musée Bartholdi,30,Rue des Marchands,68000,Colmar,France,fr,open,48.0766092,7.357482163734775,,,,2014,12006,6429,01/02/2003,label:musee de france,
6806602,47577843,Musée d'Histoire Naturelle et d'Ethnographie de Colmar,,Cour,68000,Colmar,France,fr,open,48.07362435,7.358821938150863,,,,2014,10000,8867,01/02/2003,label:musee de france,
6822401,343385574,Musée des Beaux-Arts,,Rue Guillaume Tell,68100,Mulhouse,France,fr,open,47.7457898,7.3384212,,,,2014,0,19548,01/02/2003,label:musee de france,
6822409,449007880,Musée Minéralogique de la Société Industrielle de Mulhouse,,Autodrome du Musée de l'Automobile,68100,Mulhouse,France,fr,closed,47.7612848,7.327971551196445,,,,2014,0,0,01/02/2003,label:musee de france,
6827702,1138681,Musée du Dolder,16,Rue du Général de Gaulle,68340,Riquewihr,France,fr,open,48.166885,7.298560434089087,,,,2014,1622,460,01/02/2003,label:musee de france,
6827801,1936849476,Musée du Papier Peint,28,Rue Zuber,68170,Rixheim,France,fr,open,47.7444268,7.3972851,,,,2014,7042,4816,01/02/2003,label:musee de france,
6834301,261857352,Ecomusée d'Alsace,,Chemin des Remparts,68190,Ungersheim,France,fr,open,47.85306625,7.2871333354354615,,,,2014,138857,57412,01/02/2003,label:musee de france,
6834701,5144762817,Musée du Sapeur Pompier d'Alsace (Anciennement à Mulhouse),38,Rue de Luppach,68480,Vieux-Ferrette,France,fr,open,47.5040397,7.3041592,,,,2014,6400,0,01/02/2003,label:musee de france,
2431101,,Musée Départemental de la Poupée et du Jouet,,,,NONTRON,France,fr,closed,,,,,,2014,0,0,01/02/2003,label:musee de france,
2452002,,Musée de Sarlat et du Périgord Noir,,,,SARLAT-LA-CANEDA,France,fr,closed,,,,,,2014,0,0,01/02/2003,label:musee de france,
3305701,,Musée Municipal de Blasimon,,,,BLASIMON,France,fr,closed,,,,,,2014,0,0,01/02/2003,label:musee de france,
3306306,79981701,Musée des Arts Décoratifs et du Design,33,Rue Bouffard,33000,Bordeaux,France,fr,open,44.838875200000004,-0.580228639189566,,,,2014,11004,35036,01/02/2003,label:musee de france,
3324302,265021487,Musée Historique ou du Vieux Libourne (Robin),,Avenue de la Gare,,Guîtres,France,fr,closed,45.038131199999995,-0.19740907772227706,,,,2014,0,0,01/02/2003,label:musee de france,
3339401,4870482921,Musée d'Histoire et d'Archéologique,,Place du 11 Novembre 1918,33330,Saint-Émilion,France,fr,closed,44.8959729,-0.1551283,,,,2014,0,0,01/02/2003,label:musee de france,
4016701,,Atelier-Musée  (Ecomusée de la Grande Landes),,,,LUXEY,France,fr,closed,,,,,,2014,0,0,01/02/2003,label:musee de france,
4019201,580649793,Musée Despiau-Wlérick,6,Place Marguerite de Navarre,40000,Mont-de-Marsan,France,fr,open,43.8925268,-0.4993529,,,,2014,0,10722,01/02/2003,label:musee de france,
4716701,3110116210,Musée du Liège et du Bouchon,,Rue du Puits,47170,Mézin,France,fr,open,44.0564056,0.2561249,,,,2014,3365,1157,05/07/2006,label:musee de france,
4719501,175744724,Musée du Château Henri IV,3,Rue Sederie,47600,Nérac,France,fr,open,44.1360265,0.3418098475080772,,,,2014,15201,7518,01/02/2003,label:musee de france,
4729201,5827779554,Musée de Préhistoire Mésolithique Laurent Coulonges,,D 68,47500,Sauveterre-la-Lémance,France,fr,open,44.5904194,1.0137463,,,,2014,2709,206,01/02/2003,label:musee de france,
0331002,90587179,Musée des Arts D'Afrique et D'Asie,16,Avenue Thermale,03200,Vichy,France,fr,open,46.128228,3.419954892380618,,,,2014,2684,1925,01/02/2003,label:musee de france,
2611301,145189774,Musée d'Histoire et d'Archéologie,2,Rue Noé,56000,Vannes,France,fr,open,47.6568685,-2.7579838224637703,,,,2014,821,2960,01/02/2003,label:musee de france,
6311305,67015490,Musée d'Art Roger-Quillot,,Place Louis Deteix,63100,Clermont-Ferrand,France,fr,open,45.79392705,3.1162223146769588,,,,2014,6492,26818,01/02/2003,label:musee de france,
2100801,1614573,Musée Alésia - Centre d'Interprétation,1,D 103T,21150,Alise-Sainte-Reine,France,fr,open,47.535713799999996,4.469206464634147,,,,2014,69949,19318,01/02/2003,label:musee de france,
2105401,365168495,Musée du Vin de Bourgogne,,Rue Paradis,21200,Beaune,France,fr,open,47.0235691,4.837196,,,,2014,15776,3691,01/02/2003,label:musee de france,
2123101,2482864557,Musée François Rude,,Rue Vaillant,21000,Dijon,France,fr,open,47.321005,5.0442148,,,,2014,0,60071,01/02/2003,label:musee de france,
2123104,175641505,Musée des Beaux-Arts,,Place de la Libération,21000,Dijon,France,fr,open,47.32163075,5.042364361722523,,,,2014,0,193733,06/01/2002,label:musee de france,
2146401,4737197736,Musée Municipal,,Rue Camille Rodier,21700,Nuits-Saint-Georges,France,fr,open,47.1386701,4.9505695,,,,2014,104,2975,01/02/2003,label:musee de france,
5806202,3618004518,Musée du Costume,,Place du Château,58120,Château-Chinon (Ville),France,fr,open,47.0672537,3.9351818,,,,2014,3483,1359,01/02/2003,label:musee de france,
7104701,,Musée Saint-Nazaire,,,,BOURBON-LANCY,France,fr,open,,,,,,2014,0,1598,01/02/2003,label:musee de france,
7107601,,Musée Denon,,,,CHALON-SUR-SAONE,France,fr,open,,,,,,2014,0,12705,01/02/2003,label:musee de france,
7126301,372835947,"""L'Atelier d'un Journal"""" de Louhans - Musée Municipal""",,Rue du Musée,71440,Thurey,France,fr,open,46.7430242,5.1227339,,,,2014,1496,3531,01/02/2003,label:musee de france,
7127002,700244362,Musée Lamartine,,Rue des Ursulines,71000,Saint-Clément,France,fr,open,46.307027,4.833142197130883,,,,2014,1440,4032,01/02/2003,label:musee de france,
7135101,3617522815,Ecomusée de la Bresse Bourguignonne,,Rue du Château,71270,Pierre-de-Bresse,France,fr,open,46.8828547,5.2614005,,,,2014,26033,15560,01/02/2003,label:musee de france,
7154302,7419064526,Musée Bourguignon -  Perrin de Puycousin,,Rue de l'Hôpital,71700,Tournus,France,fr,closed,46.562054,4.9109128,,,,2014,0,0,01/02/2003,label:musee de france,
7154301,7419064527,Hôtel Dieu - Musée Greuze,,Rue de l'Hôpital,71700,Tournus,France,fr,open,46.5619544,4.9109248,,,,2014,8384,1639,01/02/2003,label:musee de france,
8938701,8196077887,Musée Muncipal,135,Rue des Déportés et de la Résistance,89100,Sens,France,fr,open,48.1975028,3.284393,,,,2014,6066,25735,01/02/2003,label:musee de france,
2922001,,Musée Bigouden,,,,PONT-L'ABBE,France,fr,open,,,,,,2014,9153,3892,01/02/2003,label:musee de france,
3523801,7422696,Musée de Bretagne,,Boulevard Magenta,35000|35700|35200,Rennes,France,fr,open,48.105132049999995,-1.6741388704016005,,,,2014,18428,42992,01/02/2003,label:musee de france,
5609001,243636775,Ecomusée Industriel des Forges,,Rue des Mimosas,56650,Inzinzac-Lochrist,France,fr,open,47.823174300000005,-3.2555253999999927,,,,2014,1520,1599,01/02/2003,label:musee de france,
5618102,2854735857,Musée de la Compagnie des Indes,,Grand pont,56290,Port-Louis,France,fr,open,47.7106223,-3.3637818,,,,2014,37898,29049,01/02/2003,label:musee de france,
1814101,,Musée du Château Charles VII,,,,MEHUN-SUR-YEVRE,France,fr,open,,,,,,2014,8030,0,01/02/2003,label:musee de france,
1827901,622149606,Musée Municipal,,Rue de la Société Française,18100,Vierzon,France,fr,open,47.2249147,2.0602204,,,,2014,0,7095,01/02/2003,label:musee de france,
2805101,290571187,Musée Bonnevallais,,D 144,19120,La Chapelle-aux-Saints,France,fr,closed,44.98183915,1.7134623841845142,,,,2014,0,0,01/02/2003,label:musee de france,
2808504,255603,Conservatoire du Machinisme et des Pratiques Agricoles,,,28300,Mainvilliers,France,fr,closed,48.4489382,1.4580047,,,,2014,0,0,01/02/2003,label:musee de france,
3604401,,Musées de Châteauroux - Hôtel Bertrand,,,,CHATEAUROUX,France,fr,open,,,,,,2014,0,22564,01/02/2003,label:musee de france,
3609201,149263965,Musée de Géologie Régionale,3,Place des Sciences,1348,Ottignies-Louvain-la-Neuve,België / Belgique / Belgien,be,closed,50.6682538,4.620109526811595,,,,2014,0,0,01/02/2003,label:musee de france,
3620001,275239079,Musée Archéologique d'Argentomagus,,Impasse du Clos des Mersans,36200,Saint-Marcel,France,fr,open,46.600498,1.5163171900000003,,,,2014,7792,6527,01/02/2003,label:musee de france,
3700302,62782286,Musée de la poste,2,Rue du Clos Lucé,37400,Amboise,France,fr,closed,47.41032365,0.9921089543099333,,,,2014,0,0,01/02/2003,label:musee de france,
3719601,,Musée de l'Hôtel de Ville,,,,RICHELIEU,France,fr,open,,,,,,2014,1818,429,01/02/2003,label:musee de france,
3724101,,Musée du Savignéen,,,,SAVIGNE-SUR-LATHAN,France,fr,open,,,,,,2014,1912,0,01/02/2003,label:musee de france,
4101805,273622,Muséum d'Histoire Naturelle,,,41000,Blois,France,fr,open,47.5876861,1.3337639,,,,2014,6737,6664,01/02/2003,label:musee de france,
4101804,118645362,Maison de la Magie,,Grands Degrés du Château,41000,Blois,France,fr,open,47.5864248,1.333133645374559,,,,2014,68895,20693,01/02/2003,label:musee de france,
4115801,636023615,Atelier Musée Louis Leygue,,Rue des Venages,41100,Naveil,France,fr,open,47.7939429,1.0312301,,,,2014,0,52,01/02/2003,label:musee de france,
4125801,1241279063,Musée Archéologique,,Allée de la Mairie,41140,Thésée,France,fr,open,47.3280766,1.3062994,,,,2014,428,84,01/02/2003,label:musee de france,
4500802,,Musée Municipal Théâtre Forain et Archéologique,,,,ARTENAY,France,fr,open,,,,,,2014,7648,3138,01/02/2003,label:musee de france,
4515501,211497871,Château-Musée de Gien,,Rue de la Fabrique,45500,Gien,France,fr,closed,47.688558650000004,2.6211297937493194,,,,2014,0,0,01/02/2003,label:musee de france,
4520301,,Musée Gaston Couté,,,,MEUNG-SUR-LOIRE,France,fr,open,,,,,,2014,0,3669,01/02/2003,label:musee de france,
4523402,367781410,Musée Historique et Archéologique,41,South Orleans Road,02653,Orleans,United States,us,open,41.7878404,-69.987513,,,,2014,1083,10388,01/02/2003,label:musee de france,
0805301,1874188907,Musée de la Maison de la Dernière Cartouche,,Avenue de la Dernière Cartouche,08140,Bazeilles,France,fr,open,49.6817859,4.9754729,,,,2014,1043,960,01/02/2003,label:musee de france,
0810501,91146071,Musée Arthur Rimbaud,,Passerelle du Mont Olympe,08000,Charleville-Mézières,France,fr,closed,49.775734650000004,4.7220587026654695,,,,2014,0,0,01/02/2003,label:musee de france,
0810502,,Maison des Ailleurs - Arthur Rimbaud (Annexe du musée Rimbaud),,,,CHARLEVILLE-MEZIERES,France,fr,open,,,,,,2014,5446,0,01/02/2003,label:musee de france,
0810503,1765207774,Musée de l'Ardenne,,Les Arcades,08000,Charleville-Mézières,France,fr,open,49.77272,4.7214458,,,,2014,4480,45541,01/02/2003,label:musee de france,
5235301,5915925232,Musée de la Coutellerie,,Place Charles de Gaulle,52800,Nogent,France,fr,open,48.0275986,5.3411994,,,,2014,3188,1770,18/04/2002,label:musee de france,
5110801,323588585,Musée Municipal,,Place Godart,51000,Châlons-en-Champagne,France,fr,open,48.9564601,4.3638072,,,,2014,1551,11012,01/02/2003,label:musee de france,
5110804,156704708,Musée du Cloître de Notre-Dame-en-Vaux,4,Rue Nicolas Durand,51000,Châlons-en-Champagne,France,fr,open,48.958076,4.3631782370533925,,,,2014,1072,1759,23/02/2012,label:musee de france,
5144501,418187,Ecomusée de la Montagne de Reims,,,51480,Pourcy,France,fr,closed,49.1574346,3.9081058,,,,2014,0,0,01/02/2003,label:musee de france,
5145404,1347407,Musée Saint-Rémi,,Rue Simon,51100,Reims,France,fr,open,49.243337,4.040392199495639,,,,2014,4369,29071,01/02/2003,label:musee de france,
5145401,733881096,Musée des Beaux-Arts de Saint-Denis,,,51100,Reims,France,fr,open,49.252981500000004,4.030427080857688,,,,2014,22782,24777,06/01/2002,label:musee de france,
2A00401,66274796,Musée Napoléonien,50-52,Rue Cardinal Fesch,20000,Ajaccio,France,fr,open,41.9218958,8.738913555286306,,,,2014,5158,2118,01/02/2003,label:musee de france,
2A00402,2627082116,Musée de la Maison Bonaparte,,Rue Saint-Charles,20000,Ajaccio,France,fr,open,41.9179847,8.7385137,,,,2014,42905,24666,06/01/2002,label:musee de france,
2505607,7345774337,Muséum de Besançon,,Chemin de Ronde de la Citadelle,25000,Besançon,France,fr,open,47.2285217,6.034794,,,,2014,299168,0,01/02/2003,label:musee de france,
2505601,9493688,Musée des Beaux-Arts et d'Archéologie,,Place de la Révolution,25000,Besançon,France,fr,open,47.2402151,6.023512568897798,,,,2014,1,16478,06/01/2002,label:musee de france,
7012201,87526037,Musée Départemental Albert-et-Félicie Demard - ATP,,Place de la Mairie,70600,Champlitte,France,fr,open,47.61684495,5.514228248646819,,,,2014,6280,4889,01/02/2003,label:musee de france,
3901301,121753643,Musée Sarret de Grozon,,Grande Rue,39600,Arbois,France,fr,open,46.902592,5.7742849457831325,,,,2014,291,2217,01/02/2003,label:musee de france,
3909701,847296482,Musée Municipal d'Archéologie,,Frazione Luboz,11018,Saint-Pierre,Italia,it,open,45.7102452,7.2269227,,,,2014,323,295,01/02/2003,label:musee de france,
3919801,946483217,Musée des Beaux-Arts,,Rue des Arènes,39100,Dole,France,fr,open,47.0896386,5.4891469,,,,2014,0,24952,01/02/2003,label:musee de france,
3930001,631011962,Musée d'Archéologie,,Place Philibert de Chalon,39000,Lons-le-Saunier,France,fr,closed,46.6760636,5.5535325,,,,2014,0,0,01/02/2003,label:musee de france,
3943401,7554007745,Musée Municipal de Poligny,49,Grande Rue,39800,Poligny,France,fr,closed,46.8364264,5.708932,,,,2014,0,0,01/02/2003,label:musee de france,
3950002,151950172,Musée Max Claudet,,Place des Salines,39110,Salins-les-Bains,France,fr,closed,46.9376405,5.8761571935790275,,,,2014,0,0,01/02/2003,label:musee de france,
9000901,203596883,Musée Frédéric Japy,,Rue des Aiges,25230,Vandoncourt,France,fr,open,47.469297499999996,6.90605967289238,,,,2014,612,1317,01/02/2003,label:musee de france,
9730901,9598387,Musée des Cultures Guyanaises,54,Rue Madame Payé,97300,Cayenne,France,fr,closed,4.9412531,-52.32960007270078,,,,2014,0,0,01/02/2003,label:musee de france,
9122301,3407370497,Musée Intercommunal d'Etampes,,Chemin du Fourneou,91590,Cerny,France,fr,open,48.4959939,2.343302,,,,2014,667,5827,01/02/2003,label:musee de france,
9201203,,"Albert-Kahn, Musée et Jardin Départementaux",,,,BOULOGNE-BILLANCOURT,France,fr,open,,,,,,2014,78395,44738,01/02/2003,label:musee de france,
9201201,,Musée des Années Trente,,,,BOULOGNE-BILLANCOURT,France,fr,open,,,,,,2014,12222,12259,01/02/2003,label:musee de france,
9202501,79575406,Musée Municipal d'Art et d'Histoire,,Place du Général Leclerc,92700,Colombes,France,fr,open,48.9234139,2.2520804122623574,,,,2014,0,7070,01/02/2003,label:musee de france,
9204001,,Musée Français de la Carte à Jouer,,,,ISSY-LES-MOULINEAUX,France,fr,open,,,,,,2014,5861,16683,01/02/2003,label:musee de france,
9207201,7325289618,Cité de la céramique - Sèvres & Limoges,,Rue de la Cité,79000,Niort,France,fr,open,46.312254,-0.4461027,,,,2014,57047,31727,06/01/2002,label:musee de france,
9207301,70961327,MUS - Musée d'Histoire Urbaine et Sociale,1,Rue Merlin de Thionville,92150,Suresnes,France,fr,open,48.868207600000005,2.221619823857867,,,,2014,1059,5876,01/02/2003,label:musee de france,
7510502,7444,Galerie de Minéralogie et de Géologie (Muséum d'Histoire Naturelle),,,,Paris,France,fr,open,48.8566969,2.3514616,,,,2014,6048,1345,06/01/2002,label:musee de france,
7511605,247618453,Musée National des Arts et des Traditions Populaires (MuCem),,Rue Réaumur,75003,Paris,France,fr,closed,48.8660977,2.3554138,,,,2014,0,0,06/01/2002,label:musee de france,
7510603,,Etablissement public du musée d'Orsay et de l'Orangerie - Musée Hébert,,,,PARIS,France,fr,closed,,,,,,2014,0,0,06/01/2002,label:musee de france,
7511502,1212876,Musée Bourdelle,16,Rue Antoine Bourdelle,75015,Paris,France,fr,open,48.843215,2.318663236817872,,,,2014,6124,23942,08/07/2004,label:musee de france,
7510902,1336873192,Musée de la Franc-Maçonnerie,16,Rue Cadet,75009,Paris,France,fr,open,48.8749151,2.3431481,,,,2014,13963,3530,01/02/2003,label:musee de france,
7511606,5918699678,Musée des Monuments Français,,Rue Joliot-Curie,91190,Le Moulon,France,fr,open,48.7094092,2.1666145,,,,2014,191456,170204,09/07/2004,label:musee de france,
7510106,7515426,Musée du Louvre,,Rue Croix des Petits Champs,75001,Paris,France,fr,open,48.8611473,2.33802768704666,,,,2014,5646956,3454918,06/01/2002,label:musee de france,
7510602,395785603,Musée National Eugène Delacroix,,Rue Jacob,75006,Paris,France,fr,open,48.85464155,2.335393670592886,,,,2014,42085,26331,06/01/2002,label:musee de france,
7510102,,Musée des Arts Décoratifs (Union Centrale des Arts Décoratifs),,,,PARIS,France,fr,open,,,,,,2014,164693,144008,06/01/2002,label:musee de france,
7510402,5918699678,Musée National d'Art Moderne (Centre National d'Art et de Culture Georges Pompidou),,Rue Joliot-Curie,91190,Le Moulon,France,fr,open,48.7094092,2.1666145,,,,2014,2517861,1002502,06/01/2002,label:musee de france,
7510519,22870791,Institut du Monde Arabe,1,Rue des Fossés Saint-Bernard,75005,Paris,France,fr,open,48.848916349999996,2.3574932625000007,,,,2014,397611,153837,14/01/2011,label:musee de france,
7713201,373767052,Maison Natale de Louis Braille,,Rue Louis Braille,77700,Coupvray,France,fr,open,48.894502700000004,2.792033637344032,,,,2014,4698,0,01/02/2003,label:musee de france,
7718601,214892,Musée du Château de Fontainebleau,,Cour du Cheval Blanc,77300,Fontainebleau,France,fr,open,48.4023346,2.7005387366907625,,,,2014,257286,259625,06/01/2002,label:musee de france,
7728401,112061664,Musée Bossuet,5,Place Charles De Gaulle,77100,Meaux,France,fr,open,48.960741,2.8784914364406817,,,,2014,7990,2832,01/02/2003,label:musee de france,
7728803,112363959,Musée de la Gendarmerie Nationale,1-3,Rue Émile Leclerc,77000,Melun,France,fr,closed,48.54554555,2.6529119346368715,,,,2014,0,0,14/01/2011,label:musee de france,
7731601,126120236,Musée Municipal,4,Place de Samois,,Moret-Loing-et-Orvanne,France,fr,open,48.373796,2.8149875,,,,2014,0,9910,01/02/2003,label:musee de france,
7733301,2177750355,Musée Départemental de Préhistoire d'Île de France,,Cours du Château,77140,Nemours,France,fr,open,48.2655865,2.6970907,,,,2014,4144,24154,01/02/2003,label:musee de france,
7737901,2281215620,Musée de Provins et du Provinois,,Rue du Palais,77160,Provins,France,fr,open,48.5615816,3.2907221,,,,2014,15709,5206,01/02/2003,label:musee de france,
7744501,4895409053,Ecomusée,,Rue de la Libération,77176,Savigny-le-Temple,France,fr,open,48.5745236,2.5833427,,,,2014,466,3258,01/02/2003,label:musee de france,
9403401,7676712,Ecomusée du Val de Bièvre,,,41120,Monthou-sur-Bièvre,France,fr,open,47.4364694,1.3750271,,,,2014,0,10120,01/02/2003,label:musee de france,
9535101,,ARCHEA - Archéologie en Pays de France,,,,LOUVRES,France,fr,open,,,,,,2014,5834,3216,01/02/2003,label:musee de france,
9550001,43971811,Musée Tavet Delacour,,Rue Lemercier,95300,Pontoise,France,fr,open,49.051103499999996,2.0996586365287904,,,,2014,4991,8457,01/02/2003,label:musee de france,
7817201,,Musée de la Batellerie et des Voies Navigables,,,,CONFLANS-SAINTE-HONORINE,France,fr,closed,,,,,,2014,0,0,01/02/2003,label:musee de france,
7835601,823061902,Musée National de Port Royal des Champs,,Route Forestière de Font Couverte,78114,Trappes,France,fr,open,48.7479939,2.0152509,,,,2014,4791,20816,06/01/2002,label:musee de france,
7857501,951328,Collections de la Fondation de Coubertin,,,78470,Saint-Rémy-lès-Chevreuse,France,fr,open,48.7054888,2.071109,,,,2014,1140,509,01/02/2003,label:musee de france,
9741102,146937367,Muséum d'Histoire Naturelle,,Rue Poivre,97400,Saint-Denis,France,fr,open,-20.8874571,55.451628083719484,,,,2014,5396,27641,06/01/2002,label:musee de france,
1106901,842466709,Musée des Beaux-Arts,,Rue de Verdun,11000,Carcassonne,France,fr,open,43.212599,2.3550441,,,,2014,0,73579,01/02/2003,label:musee de france,
1107601,321732839,Musée Archéologique du Lauragais,,Rampe du Présidial,11400,Castelnaudary,France,fr,open,43.3155934,1.9588475,,,,2014,386,673,01/02/2003,label:musee de france,
1136901,758324962,Musée Archéologique,,Chemin de Halage,11590,Sallèles-d'Aude,France,fr,open,43.273517,2.9369963132911447,,,,2014,6084,4469,01/02/2003,label:musee de france,
3018906,249023783,Carré d'Art Musée d'Art Contemporain de Nîmes,16,Place de la Maison Carrée,30000,Nîmes,France,fr,open,43.8379778,4.3550651390627815,,,,2014,16726,24081,01/02/2003,label:musee de france,
3020202,73758873,Musée Départemental d'Art Sacré du Gard,,Rue Saint-Jacques,30130,Pont-Saint-Esprit,France,fr,open,44.25521465,4.65104364282573,,,,2014,99,8979,01/02/2003,label:musee de france,
3025801,3549720940,Musée de la Maison Romane,,Rue Maison Romane,30800,Saint-Gilles,France,fr,open,43.6769345,4.4310858,,,,2014,1010,1853,01/02/2003,label:musee de france,
3033401,2910313011,Musée Municipal Georges Borias,,Promendade Racine,30700,Uzès,France,fr,open,44.0124548,4.422769,,,,2014,1437,1267,01/02/2003,label:musee de france,
3400301,4134270080,Musée Agathois,5,Rue de la Fraternité,34300,Agde,France,fr,open,43.3118294,3.4686196,,,,2014,1535,1627,01/02/2003,label:musee de france,
3403901,277812836,Musée de l'Etang de Thau,,Chemin du Belvédère,34140,Bouzigues,France,fr,open,43.446872,3.6617685,,,,2014,12992,1756,01/02/2003,label:musee de france,
3410801,1964228636,Musée Municipal,27,Quai du Maréchal de Lattre de Tassigny,34200,Sète,France,fr,closed,43.4060674,3.6961935,,,,2014,0,0,01/02/2003,label:musee de france,
3411901,425241849,Musée de la Cloche et de la Sonnaille,,Avenue des Treize Vents,34600,Hérépian,France,fr,open,43.59457755,3.112557793850808,,,,2014,1498,1660,01/02/2003,label:musee de france,
1903101,975799385,Musée Labenche d'Art et d'Histoire,4,Rue Champanatier,19100,Brive-la-Gaillarde,France,fr,open,45.1563488,1.5277125,,,,2014,2078,36701,15/08/2002,label:musee de france,
2300801,225393416,Musée Départemental de la Tapisserie,,Rue Vieille,23200,Aubusson,France,fr,open,45.9572515,2.170781705882353,,,,2014,13038,4368,17/06/2002,label:musee de france,
5443101,,"""Musée """"au Fil du Papier""""""",,,,PONT-A-MOUSSON,France,fr,open,,,,,,2014,2417,2187,01/02/2003,label:musee de france,
5725601,309445273,Musée Départemental de la Guerre de 70,11,Rue de Metz,57130,Gravelotte,France,fr,open,49.114021050000005,6.029759781346406,,,,2014,18998,11088,01/02/2003,label:musee de france,
5744801,253993536,Musée Départemental du Sel,,D 38A,57630,Marsal,France,fr,open,48.788486,6.6057743,,,,2014,3996,6099,01/02/2003,label:musee de france,
5745601,228213586,Maison du Verre et du Cristal,,Place Robert Schuman,57960,Meisenthal,France,fr,open,48.96507149999999,7.352640225880503,,,,2014,15131,2959,01/02/2003,label:musee de france,
5730601,743473900,Musée des Mines de fer de Lorraine,,Rue du Musée,57700,Neufchef,France,fr,open,49.325366,6.0281510102739695,,,,2014,17601,1585,01/02/2003,label:musee de france,
5771201,227335819,Musée Départemental Georges de la Tour,,Place Jeanne D'Arc,57630,Vic-sur-Seille,France,fr,open,48.781924000000004,6.531002917135707,,,,2014,3758,6614,01/02/2003,label:musee de france,
8838302,2582715284,Musée Charles Friry,12,Rue du Général Humbert,88200,Remiremont,France,fr,open,48.0151071,6.5897788,,,,2014,583,1262,11/08/2002,label:musee de france,
8838301,5390940587,Musée Charles de Bruyères,,Rue Charles de Gaulle,88200,Remiremont,France,fr,open,48.0161212,6.593241,,,,2014,609,2991,11/08/2002,label:musee de france,
9720901,4807601528,Musée Départemental d'Archéologie Précolombienne et de Préhistoire de la Martinique,10,Boulevard Général de Gaulle,97200,Fort-de-France,France,fr,open,14.6063988,-61.0657667,,,,2014,4574,2043,01/02/2003,label:musee de france,
9720902,4807601528,Musée Régional d'Histoire et d'Ethnologie,10,Boulevard Général de Gaulle,97200,Fort-de-France,France,fr,open,14.6063988,-61.0657667,,,,2014,1879,2316,01/02/2003,label:musee de france,
9722501,,Musée Volcanologique Franck Arnold Perret,,,,SAINT-PIERRE,France,fr,open,,,,,,2014,24705,450,01/02/2003,label:musee de france,
0912201,3241536133,Musée Départemental de l'Ariège,,Rue du Rocher,09000,Foix,France,fr,open,42.9657002,1.6047597,,,,2014,80152,7638,01/02/2003,label:musee de france,
0916001,7228420483,Musée du Textile et du Peigne en Corne,65,Rue Jean Canal,09300,Lavelanet,France,fr,open,42.9296646,1.8454676,,,,2014,1810,531,01/02/2003,label:musee de france,
1209602,152865476,Musée Joseph Vaylet,,Rue Droite,12500,Espalion,France,fr,open,44.521226,2.7623283513681596,,,,2014,2287,2215,01/02/2003,label:musee de france,
1220301,2242124020,Musée Municipal d'archéologie,2,Avenue François Galtier,12250,Roquefort-sur-Soulzon,France,fr,closed,43.9745977,2.9927119,,,,2014,0,0,01/02/2003,label:musee de france,
3201301,65470495,Musée des Jacobins,,Rue Daumesnil,32000,Auch,France,fr,open,43.64730755,0.5875967260305804,,,,2014,5397,11167,01/02/2003,label:musee de france,
3132401,,Musée Municipal,,,,MARTRES-TOLOSANE,France,fr,open,,,,,,2014,469,5300,01/02/2003,label:musee de france,
4610202,68383015,Musée Champollion - Les Ecriture du Monde,,Impasse Champollion,46100,Figeac,France,fr,open,44.60972575,2.0344712177978126,,,,2014,32146,9140,01/02/2003,label:musee de france,
4610201,4383203115,Musée d'Histoire de Figeac,,Boulevard du Colonel Teulié,46100,Figeac,France,fr,open,44.6105203,2.0363635,,,,2014,0,0,01/02/2003,label:musee de france,
8100401,34627060,Musée Toulouse Lautrec,,Place de L'Archevêché,81000,Albi,France,fr,open,43.9293134,2.1428612931044957,,,,2014,134230,33787,01/02/2003,label:musee de france,
8106501,1436215239,Musée Goya,1,Rue de l'Hôtel de Ville,81100,Castres,France,fr,open,43.6035253,2.2417743,,,,2014,21489,20473,06/01/2002,label:musee de france,
8114501,,Musée Raymond Lafage,,,,LISLE-SUR-TARN,France,fr,open,,,,,,2014,1127,2566,01/02/2003,label:musee de france,
8211202,59127408,Musée des arts et traditions populaires,1,Rue de l'Abbaye,82200,Moissac,France,fr,open,44.10574095,1.0849678812128933,,,,2014,0,437,01/02/2003,label:musee de france,
8212101,127805191,Musée d'Histoire Naturelle Victor Brun,,Rue Marie Lafon,82000,Montauban,France,fr,open,44.01688865,1.3514607739557976,,,,2014,1421,5853,01/02/2003,label:musee de france,
5903601,107548567,Musée d'Histoire et d'Archéologie,,Allée Chanoine Biévelet,59570,Bavay,France,fr,closed,50.298608,3.79103261466165,,,,2014,0,0,01/02/2003,label:musee de france,
5952601,2060779461,Musée Municipal,,Grand'Place,59230,Saint-Amand-les-Eaux,France,fr,open,50.4489646,3.4287208,,,,2014,0,13063,01/02/2003,label:musee de france,
6216004,18822516,Muséum d'Histoire Naturelle,,Boulogne Sur Mer,C1187AAN,Buenos Aires,Argentina,ar,closed,-34.603178,-58.4063017,,,,2014,0,0,01/02/2003,label:musee de france,
6226801,244679581,Musée de la Céramique,,Rue Jean Macé,62240,Desvres,France,fr,open,50.666714,1.842068159820283,,,,2014,7188,1356,01/02/2003,label:musee de france,
6231801,2960682988,Musée Quentovic,8,Place du Général de Gaulle,62630,Étaples,France,fr,open,50.5139724,1.6376703,,,,2014,4700,0,01/02/2003,label:musee de france,
6276502,7944467329,Musée Henri Dupuis,,Rue Henri Dupuis,62500,Saint-Omer,France,fr,closed,50.7484196,2.2511244,,,,2014,0,0,01/02/2003,label:musee de france,
1411802,155642549,Musée de Normandie,,Allée du Chat qui Veille,14000,Caen,France,fr,open,49.18563295,-0.3632591181335702,,,,2014,19357,72772,06/01/2002,label:musee de france,
1411804,6465290615,Mémorial de Caen,,Cours des Français Libres,14000,Caen,France,fr,open,49.1985281,-0.3834794,,,,2014,438998,0,01/02/2003,label:musee de france,
1475401,367285600,Paléospace / Musée Paléontologique,,Avenue Jean Moulin,14640,Villers-sur-Mer,France,fr,open,49.32785775000001,0.013359593768197942,,,,2014,47514,372,01/02/2003,label:musee de france,
5002501,135528003,Musée Municipal d'Avranches,,Rue du Docteur Ollivier,50400,Granville,France,fr,open,48.8429745,-1.592543481481478,,,,2014,0,10202,01/02/2003,label:musee de france,
5012902,621413281,Musée Thomas Henry,,Esplanade de la Laïcité,50100,Cherbourg-en-Cotentin,France,fr,closed,49.6373411,-1.6229459,,,,2014,0,0,01/02/2003,label:musee de france,
5014701,68664267,Musée Quesnel-Morinière,2,Rue Quesnel-Morinière,50200,Coutances,France,fr,open,49.0472298,-1.4467416238048025,,,,2014,244,5782,01/02/2003,label:musee de france,
5017301,,Musée Municipal,,,,EQUEURDREVILLLE-HAINNEVILLE,France,fr,open,,,,,,2014,0,2310,01/02/2003,label:musee de france,
5021803,135528003,Musée Christian Dior,,Rue du Docteur Ollivier,50400,Granville,France,fr,open,48.8429745,-1.592543481481478,,,,2014,35509,4801,01/02/2003,label:musee de france,
5050201,3446879240,Musée des Beaux-Arts,,Place du Champ de Mars,50000,Saint-Lô,France,fr,open,49.1170485,-1.0881118,,,,2014,7229,0,01/02/2003,label:musee de france,
6137901,4317391883,Musée Départemental des Arts et Traditions Populaires du Perche,,D 277,61130,Saint-Cyr-la-Rosière,France,fr,open,48.3249849,0.6549988,,,,2014,11765,11540,01/02/2003,label:musee de france,
2716501,,Musée du Verre et de la Pierre,,,,CONCHES-EN-OUCHE,France,fr,open,,,,,,2014,2367,2640,01/02/2003,label:musee de france,
2722901,,Musée de l'Ancien Evêché,,,,EVREUX,France,fr,open,,,,,,2014,0,25615,01/02/2003,label:musee de france,
7623101,6125652532,Musée d'Elbeuf,7,Cours Gambetta,76500,Elbeuf,France,fr,open,49.2849932,1.0058403,,,,2014,0,37816,01/02/2003,label:musee de france,
7647401,121934820,Musée Industriel de la Corderie Vallois,185,Route de Dieppe,76960,Notre-Dame-de-Bondeville,France,fr,open,49.4951715,1.0479190217391308,,,,2014,2184,6823,01/02/2003,label:musee de france,
7654009,8063434964,Musée-Maison Natale Pierre Corneille,,Rue de la Pie,76000,Rouen,France,fr,open,49.4430989,1.0867988,,,,2014,0,3911,01/02/2003,label:musee de france,
7654005,64181527,Musée des Beaux-Arts,,Esplanade Marcel Duchamp,76000,Rouen,France,fr,open,49.44473675,1.0945818804156213,,,,2014,54417,70090,06/01/2002,label:musee de france,
7662401,1826563,Association de l'Horlogerie Aliermontaise,,,76510,Saint-Nicolas-d'Aliermont,France,fr,open,49.878403,1.2140639,,,,2014,4955,2524,01/02/2003,label:musee de france,
7674201,479793340,Musée Victor Hugo,,Véloroute du Val de Seine,76490,Rouen,France,fr,open,49.5243684,0.7222076852299901,,,,2014,4960,7543,01/02/2003,label:musee de france,
4401001,,Musée des Marais Salant,,,,BATZ-SUR-MER,France,fr,open,,,,,,2014,13528,5155,20/12/2005,label:musee de france,
4402101,3339518562,Musée du Pays de Retz,,Rue des Moines,44580,Saint-Nazaire,France,fr,open,47.0422902,-1.9521029,,,,2014,2765,736,01/02/2003,label:musee de france,
4403601,272817005,Musée Municipal,,Rue du Grand Conde,44520,Moisdon-la-Rivière,France,fr,closed,47.6048045,-1.3481625114296083,,,,2014,0,0,01/02/2003,label:musee de france,
4417701,79384224,Musée du Vignoble Nantais,,Rue Pierre Abélard,44330,Le Pallet,France,fr,open,47.1344821,-1.3300319377837853,,,,2014,3468,2592,01/02/2003,label:musee de france,
4410907,3473536003,Musée  Départemental Dobrée,,Place Jean V,44003,Nantes,France,fr,closed,47.2123071,-1.5658435,,,,2014,0,0,01/09/2002,label:musee de france,
4417501,,Musée du Chaume/Kerhinet - PNR Brière,,,,SAINT-LYPHARD,France,fr,open,,,,,,2014,2502,84358,01/02/2003,label:musee de france,
4900708,8142950,Muséum des Sciences Naturelles,43,Rue Jules Guitton,49000,Angers,France,fr,open,47.473709,-0.5462840642857151,,,,2014,3843,20589,01/02/2003,label:musee de france,
4929201,2427017251,Musée de la Vigne et du Vin d'Anjou,,Rue de la Coudraye,49750,Angers,France,fr,open,47.2999784,-0.6335965,,,,2014,5337,1779,17/06/2002,label:musee de france,
5307701,1305841940,Musée Communal Robert Tatin,,L'Allée des Géants,53230,Cossé-le-Vivien,France,fr,open,47.9337461,-0.8955996,,,,2014,17818,9158,28/06/2002,label:musee de france,
5312201,8292313,Musée Archéologique Départemental de Jublains,,Rue de la Libération,53160,Jublains,France,fr,open,48.2545411,-0.4975843742117564,,,,2014,18258,11284,18/07/2002,label:musee de france,
8501201,,Ecomusée du Marais Breton Vendéen,,,,LA BARRE-DE-MONTS,France,fr,open,,,,,,2014,15290,4095,01/02/2003,label:musee de france,
0216801,5425520722,Musée Jean de la Fontaine,,Rue Jean De La Fontaine,02400,Château-Thierry,France,fr,open,49.0467222,3.4001157,,,,2014,11956,2216,01/02/2003,label:musee de france,
0278901,3895217493,Musée de La Thiérache,3,Rue du Traité de Paix,02140,Vervins,France,fr,open,49.8346266,3.9067889,,,,2014,0,5119,01/02/2003,label:musee de france,
6002901,7846097625,Musée de la Céramique Architecturale,,Avenue du Maréchal Foch,60390,Auneuil,France,fr,closed,49.3719838,1.9903065,,,,2014,0,0,01/02/2003,label:musee de france,
6005701,556458814,Musée Départemental de l'Oise,,Rue Saint-Pierre,60000,Beauvais,France,fr,open,49.4329907,2.0796036241134193,,,,2014,0,30686,01/02/2003,label:musee de france,
6015901,1789074264,Musée du Château de Compiègne,,Place du Général de Gaulle,60200,Compiègne,France,fr,open,49.4188454,2.830196,,,,2014,36823,45449,06/01/2002,label:musee de france,
6039501,147861398,Musée de la Nacre et de la Tabletterie,51,Rue Roger Salengro,60110,Méru,France,fr,open,49.2384518,2.138434984239656,,,,2014,15094,4925,18/04/2008,label:musee de france,
6047103,476735511,Musée Jean Calvin,,Rue du Porcelet,60400,Noyon,France,fr,open,49.5817505,2.9984424,,,,2014,2215,791,01/02/2003,label:musee de france,
6061203,5357724995,Musée de la Vénerie,,Place Saint-Maurice,60300,Senlis,France,fr,open,49.2072693,2.5833865,,,,2014,2573,3830,01/02/2003,label:musee de france,
6066401,6634451503,Musée Archéologique de l'Oise,,Grande Rue de Vendeuil,60120,Vendeuil-Caply,France,fr,open,49.6101842,2.2973429,,,,2014,4391,2462,01/02/2003,label:musee de france,
8000101,638296084,Musée Boucher-de-Perthes,,Rue Gontier Patin,80100,Abbeville,France,fr,open,50.1071737,1.8333893,,,,2014,8589,0,01/02/2003,label:musee de france,
8062001,193012404,Musée Alfred Danicourt,,Rue de la Résistance,80200,Péronne,France,fr,open,49.929138,2.9306000138110875,,,,2014,0,3127,01/02/2003,label:musee de france,
8062002,193012404,Musée-Historial de la Grande Guerre,,Rue de la Résistance,80200,Péronne,France,fr,open,49.929138,2.9306000138110875,,,,2014,90384,23275,01/02/2003,label:musee de france,
1601502,44840732,Atelier - Musée du Papier,,Rue de Bordeaux,16000,Saint-Cybard,France,fr,open,45.65355635,0.1495325417727163,,,,2014,590,20762,01/02/2003,label:musee de france,
1601504,,Cité International de la Bande Dessinée et de l'Image - Musée de la Bande Dessinée,,,,ANGOULEME,France,fr,open,,,,,,2014,14134,39970,01/02/2003,label:musee de france,
1730003,1445028137,Musée des Beaux-Arts,,Rue Gargoulleau,17000,La Rochelle,France,fr,open,46.1621097,-1.1515809,,,,2014,3747,12490,26/05/2002,label:musee de france,
1730005,368061866,Musée Protestant,,Siwanoy Trail,10475,New York,United States,us,open,40.8717809,-73.8056401,,,,2014,1238,267,01/02/2003,label:musee de france,
1730004,,Musée d'Orbigny-Bernon,,,,LA ROCHELLE,France,fr,closed,,,,,,2014,0,0,26/05/2002,label:musee de france,
1721801,,Musée Cappon,,,,MARANS,France,fr,open,,,,,,2014,20,0,01/02/2003,label:musee de france,
1741503,67102698,Musée Archéologique,,Place Bassompierre,17100,Saintes,France,fr,open,45.745257699999996,-0.6286597158380409,,,,2014,0,31949,01/02/2003,label:musee de france,
1741501,2400379556,Musée de l'Echevinage,,Place de l'Échevinage,17100,Saintes,France,fr,open,45.7459257,-0.6333715,,,,2014,0,7015,01/02/2003,label:musee de france,
1741502,136636544,Musée du Présidial,,Rue André Lemoyne,17100,Saintes,France,fr,closed,45.746601749999996,-0.6320098487431683,,,,2014,0,0,01/02/2003,label:musee de france,
7919102,795257552,Musée d'Histoire Naturelle,26,Avenue de Limoges,79000,Niort,France,fr,closed,46.3210536,-0.454416,,,,2014,0,0,01/02/2003,label:musee de france,
0413501,,Musée de la Faïence,,,,MOUSTIERS-SAINTE-MARIE,France,fr,open,,,,,,2014,5168,2461,01/02/2003,label:musee de france,
0602701,63863191,Musée-Château de Cagnes,,Chemin des Collettes,06800,Cagnes-sur-Mer,France,fr,open,43.667673699999995,7.156948252321393,,,,2014,16960,8705,01/02/2003,label:musee de france,
0602901,64917198,Musée de la Castre,,Place de la Castre,,Cannes,France,fr,open,43.5501472,7.010204428560124,,,,2014,17330,18844,01/02/2003,label:musee de france,
0608305,137784549,Musée des Beaux-Arts,,Avenue de la Madone,06500,Menton,France,fr,open,43.766633999999996,7.487974850304882,,,,2014,0,15795,01/02/2003,label:musee de france,
0608803,,Musée des Beaux-Arts Jules Chéret,,,,NICE,France,fr,open,,,,,,2014,0,40318,06/01/2002,label:musee de france,
0608810,,Musée Archéologique - Site de Terra Amata,,,,NICE,France,fr,open,,,,,,2014,0,19826,01/02/2003,label:musee de france,
0609801,149921556,Ecomusée du Pays de la Roudoule,,Placette de l'Europe,06260,Puget-Rostang,France,fr,open,43.9741388,6.918903152040816,,,,2014,975,484,01/02/2003,label:musee de france,
0615502,88040667,Musée Picasso la guerre et la paix à Vallauris,,Place de la Libération,06220,Vallauris,France,fr,open,43.580016,7.0532145,,,,2014,17921,16255,06/01/2002,label:musee de france,
1300103,34505703,Musée des Tapisseries,,Rue Cardinale,13626,Aix-en-Provence,France,fr,open,43.5254678,5.4526102,,,,2014,4638,14688,01/02/2003,label:musee de france,
1300104,34505703,Musée Granet,,Rue Cardinale,13626,Aix-en-Provence,France,fr,open,43.5254678,5.4526102,,,,2014,135560,63793,01/02/2003,label:musee de france,
1300501,,Musée de la Légion Etrangère,,,,AUBAGNE/PUYLOUBIER,France,fr,open,,,,,,2014,0,9292,14/01/2011,label:musee de france,
1302201,,Musée Municipal Méditerranéen de Cassis A.T.P.,,,,CASSIS,France,fr,open,,,,,,2014,95,7678,01/02/2003,label:musee de france,
1303801,,Musée Alphonse Daudet,,,,FONTVIEILLE,France,fr,open,,,,,,2014,2797,561,01/02/2003,label:musee de france,
1320401,68976388,Musée des Beaux-Arts de Marseille,,Rue Édouard Stéphan,13004,Marseille,France,fr,open,43.304596450000005,5.394039596087057,,,,2014,17163,43313,06/01/2002,label:musee de france,
1320601,69139913,Musée Cantini,,Rue Grignan,13006,Marseille,France,fr,open,43.292207399999995,5.378208413712626,,,,2014,22178,21334,01/02/2003,label:musee de france,
1310001,6214739885,Musée des Alpilles,,Rue du Parage,13210,Saint-Rémy-de-Provence,France,fr,closed,43.7894582,4.8308012,,,,2014,0,0,01/02/2003,label:musee de france,
1310301,,Musée de l'Empéri de Salon et de la Crau,,,,SALON-DE-PROVENCE,France,fr,open,,,,,,2014,0,45346,01/02/2003,label:musee de france,
8400301,1933370178,Musée d'Apt,,Place du Postel,84400,Apt,France,fr,open,43.8757289,5.3979308,,,,2014,2762,6523,01/02/2003,label:musee de france,
8400704,1490236424,Musée Calvet (et musée Lapidaire),,Cours du Musée Calvet,84000,Avignon,France,fr,open,43.9469675,4.8036302,,,,2014,13431,21035,06/01/2002,label:musee de france,
8403103,1802571381,Musée Comtadin-Duplessis,,Rue du Collège,84200,Carpentras,France,fr,open,44.054376,5.046289,,,,2014,441,2370,01/02/2003,label:musee de france,
8403503,5111377213,Musée Jouve,,Rue Hébraïque,84300,Cavaillon,France,fr,closed,43.8371707,5.0385983,,,,2014,0,0,01/02/2003,label:musee de france,
8413901,694831616,Musée-Bibliothèque François Pétrarque,,Chemin de la Fontaine de Vaucluse,84800,Fontaine-de-Vaucluse,France,fr,open,43.9220356,5.1302755,,,,2014,2146,1022,01/02/2003,label:musee de france,
8406801,,Musée Philippe de Girard,,,,LOUMARIN - CADENET,France,fr,closed,,,,,,2014,0,0,01/02/2003,label:musee de france,
0126901,138473284,Musée de la Résistance et de la Déportation de l'Ain,3,Montée de l'Abbaye,01130,Nantua,France,fr,open,46.1525,5.60827747048556,,,,2014,7149,4270,01/02/2003,label:musee de france,
0718601,8313178925,Musée de la terre ardéchoise,,Voie Douce de la Payre,07000,Privas,France,fr,closed,44.7196687,4.6011043,,,,2014,0,0,01/02/2003,label:musee de france,
0732401,2793855499,Musée du Rhône,,,07270,Lamastre,France,fr,open,44.9980175,4.6108622,,,,2014,17131,15436,01/02/2003,label:musee de france,
7405601,97313427,Musée Alpin,,Rue de la Tournette,74400,Chamonix-Mont-Blanc,France,fr,open,45.924025099999994,6.871257449784508,,,,2014,11572,6010,01/02/2003,label:musee de france,
3818503,35095625,Muséum d'Histoire Naturelle de Grenoble,1,Rue Dolomieu,38000,Grenoble,France,fr,open,45.188011849999995,5.7352090917872225,,,,2014,35942,66125,06/01/2002,label:musee de france,
3851601,192104327,Musée Hébert,,Musée Hébert,38700,La Tronche,France,fr,open,45.2057094,5.7489167,,,,2014,0,27286,01/02/2003,label:musee de france,
3854402,135880564,Musée Lapidaire Saint-Pierre,,Rue Delorme,38200,Vienne,France,fr,open,45.522842999999995,4.871060720000006,,,,2014,6276,10998,01/02/2003,label:musee de france,
4209401,346317680,Musée d'Archéologie,,Rue Victor de Laprade,42110,Feurs,France,fr,open,45.7442509,4.2195524,,,,2014,2591,3711,01/02/2003,label:musee de france,
7300601,,Musée archéologique et minéralogique Pierre Borrione,,,,AIME-EN-TARENTAISE Cedex,France,fr,open,,,,,,2014,894,358,01/02/2003,label:musee de france,
7300801,79376440,Musée du docteur Faure,,Boulevard des Côtes,73100,Aix-les-Bains,France,fr,open,45.6925521,5.915906815022636,,,,2014,5848,4463,01/02/2003,label:musee de france,
7318101,,Musée de l'Académie de La Val d'Isère,,,,MOÛTIERS,France,fr,open,,,,,,2014,197,236,01/02/2003,label:musee de france,
9750202,,Musée de l'Arche,,,,SAINT-PIERRE ET MIQUELON,France,fr,open,,,,,,2014,2141,1735,01/02/2003,label:musee de france,
6706101,2399054638,Musée de Bouxwiller et du pays de hanau,,Rue du Canal,67330,Bouxwiller,France,fr,open,48.8249535,7.4835103,,,,2014,4940,0,01/02/2003,label:musee de france,
6753801,1773559189,Musée Lalique,,Rue du Hochberg,67290,Wingen-sur-Moder,France,fr,open,48.9265922,7.3620686,,,,2014,41478,10448,15/03/2007,label:musee de france,
6822402,45841480,Musée de l'Impression sur Etoffes,,Rue des Bonnes Gens,68100,Mulhouse,France,fr,open,47.7447923,7.344778561009134,,,,2014,36951,0,01/02/2003,label:musee de france,
2405501,4119820065,Château de Bourdeilles,,Rue du Vieux Moulin,24310,Bourdeilles,France,fr,open,45.3222039,0.5867267,,,,2014,27680,281,01/02/2003,label:musee de france,
2406401,5089643323,Musée Fernand Desmoulin,,Boulevard Charlemagne,24310,Nontron,France,fr,open,45.3641641,0.6468008,,,,2014,20348,2115,01/02/2003,label:musee de france,
2429901,3136128949,Musée des Arts et Traditions Populaires du Périgord,1,Rue Raoul Grassin,24400,Mussidan,France,fr,open,45.0375278,0.362942,,,,2014,891,1057,01/02/2003,label:musee de france,
2432201,,Musée d'Art et d'Archéologie du Périgord (MAAP),,,,PERIGUEUX,France,fr,open,,,,,,2014,6794,17518,01/02/2003,label:musee de france,
3306310,6912095875,Musée Goupil,,Cours Pasteur,33000,Bordeaux,France,fr,closed,44.8358149,-0.5749304,,,,2014,0,0,01/02/2003,label:musee de france,
3306301,117456213,CAPC Musée d'Art Contemporain de Bordeaux,,Rue Foy,33000,Bordeaux,France,fr,open,44.84864035,-0.5721571062499995,,,,2014,44565,82736,01/02/2003,label:musee de france,
3306309,79979931,Centre National Jean Moulin,,Place Jean Moulin,33000,Bordeaux,France,fr,open,44.83869155,-0.5776727923278906,,,,2014,0,27625,01/02/2003,label:musee de france,
3306303,79979299,Musée des Beaux-Arts,,Rue Dufau,33000,Bordeaux,France,fr,open,44.837340600000005,-0.5806817120198913,,,,2014,117492,0,06/01/2002,label:musee de france,
3306701,3594252315,Musée de la Voiture à Cheval. Au temps des calèches,,Rue du Roc,33710,Bourg,France,fr,open,45.0389607,-0.5614182,,,,2014,1999,965,01/02/2003,label:musee de france,
3335201,3594400954,Musée Municipal,,D 126,33190,Les Esseintes,France,fr,closed,44.6073617,-0.0742559,,,,2014,0,0,01/02/2003,label:musee de france,
4004601,1508590127,Musée Historique de l'Hydravion,,Rue Louis Bréguet,40600,Biscarrosse,France,fr,open,44.3892176,-1.1816658,,,,2014,14421,1800,01/02/2003,label:musee de france,
4008801,5223344896,Musée de Borda,11 bis,Rue des Carmes,40100,Dax,France,fr,open,43.7105638,-1.0538641,,,,2014,1989,6143,01/02/2003,label:musee de france,
4019401,102618114,Musée de la Chalosse,480,Chemin du Sala,40380,Montfort-en-Chalosse,France,fr,open,43.71570595,-0.8337172286260439,,,,2014,5623,2307,01/02/2003,label:musee de france,
4028601,5681725229,Musée Départemental de la Faïence et des Arts de la table,,Route d'Hagetmau,40320,Samadet,France,fr,open,43.6412514,-0.5106808,,,,2014,2550,2502,01/02/2003,label:musee de france,
4732301,,Musée Municipal (Moulin de Gajac),,,,VILLENEUVE-SUR-LOT,France,fr,open,,,,,,2014,3668,3688,01/02/2003,label:musee de france,
6406201,4335473543,Musée Municipal,,Rue du Tennis,64260,Arudy,France,fr,open,43.1016426,-0.4297682,,,,2014,905,770,01/02/2003,label:musee de france,
6444503,6815484814,Musée National du Château,,Rue Mathieu Lalanne,64000,Pau,France,fr,open,43.2977315,-0.3645267,,,,2014,42315,44333,06/01/2002,label:musee de france,
6444501,,Musée Municipal des Beaux-Arts,,,,PAU,France,fr,closed,,,,,,2014,0,0,01/02/2003,label:musee de france,
0304801,,Musée Charles-Louis Philippe,,,,CERILLY,France,fr,open,,,,,,2014,168,258,01/02/2003,label:musee de france,
0319001,77184178,Musée Anne de Beaujeu,,Rue des Fausses Braies,03000,Moulins,France,fr,open,46.56717035,3.3300616836759867,,,,2014,19111,8923,01/02/2003,label:musee de france,
1516801,6838400485,Ecomusée de Margeride-Haute-Auvergne,,,15320,Ruynes-en-Margeride,France,fr,open,44.9961982,3.207524,,,,2014,6958,635,01/02/2003,label:musee de france,
2614601,133910375,Château de Grignan,,Rue Montant au Château,26230,Grignan,France,fr,open,44.418758600000004,4.908919569000301,,,,2014,99745,72584,01/02/2003,label:musee de france,
4307001,4398955697,Musée de Paléontologie,,Rue du Château,43380,Chilhac,France,fr,open,45.1559183,3.4375593,,,,2014,2518,166,01/02/2003,label:musee de france,
4311701,,Musée des Arts et Traditions Populaires de Haute Loire,,,,LAVAUDIEU,France,fr,open,,,,,,2014,8694,655,01/02/2003,label:musee de france,
6321101,798314887,Musée des Pénitents Blancs,,Place de l'Église,63940,Marsac-en-Livradois,France,fr,open,45.4787455,3.7287661,,,,2014,254,27,01/02/2003,label:musee de france,
6322301,7638286185,Musée Paléontologique,,D 508,63560,Neuf-Église,France,fr,open,46.1202255,2.8584098,,,,2014,311,66,01/02/2003,label:musee de france,
6324701,,Musée des Peintres de l'Ecole de Murols,,,,MUROL,France,fr,open,,,,,,2014,4693,222,01/02/2003,label:musee de france,
6330002,700609622,Musée Francisque Mandet,14,Rue de l'Hôtel de Ville,63200,Riom,France,fr,open,45.8935237,3.116637906648638,,,,2014,4482,9453,01/02/2003,label:musee de france,
2103801,7419064530,Musée Bonaparte,,Place du Château,21130,Auxonne,France,fr,closed,47.1915827,5.3833549,,,,2014,0,0,01/02/2003,label:musee de france,
2105404,1681385,Musée E.J Marey,,Place des Halles,21200,Beaune,France,fr,closed,47.0221265,4.836843691477009,,,,2014,0,0,01/02/2003,label:musee de france,
2111401,272998829,Musée de la Sidérurgie Grande Forge,,D 905,21500,Buffon,France,fr,closed,47.64955205,4.261698831211838,,,,2014,0,0,01/02/2003,label:musee de france,
2142502,,Musée des Beaux-Arts,,,,MONTBARD,France,fr,closed,,,,,,2014,0,0,01/02/2003,label:musee de france,
2158401,1870447615,Musée Municipal François Pompon,,Place Docteur Roclore,21210,Saulieu,France,fr,open,47.2796264,4.2298054,,,,2014,2788,5523,01/02/2003,label:musee de france,
5805901,,Musée Municipal,,,,LA CHARITE-SUR-LOIRE,France,fr,closed,,,,,,2014,0,0,01/02/2003,label:musee de france,
5819403,339392015,Musée Archéologique du Nivernais (Porte du Croux),,Rue des Ouches,58000,Nevers,France,fr,closed,46.9882494,3.1580768,,,,2014,0,0,01/02/2003,label:musee de france,
7101403,3234274490,Musée Lapidaire Saint-Nicolas,,Rue Saint-Nicolas,71400,Autun,France,fr,closed,46.9553471,4.3003744,,,,2014,0,0,01/02/2003,label:musee de france,
7110601,7419064524,Musée René Davoine,32,Rue René Davoine,71120,Charolles,France,fr,closed,46.4312242,4.2732669,,,,2014,0,0,01/02/2003,label:musee de france,
7113701,142255492,Musée d'Art et d'Archéologie,,Place Notre-Dame,60300,Senlis,France,fr,open,49.2064225,2.5866285006288354,,,,2014,11227,2855,01/02/2003,label:musee de france,
7127201,6575800688,Musée Départemental du Compagnonnage,,Rue Pierre François Guillon,71570,Romanèche-Thorins,France,fr,open,46.1880514,4.733891,,,,2014,2200,2204,01/02/2003,label:musee de france,
8902402,62636018,Musée d'Art et d'Histoire,,Rue Cochois,89000,Auxerre,France,fr,open,47.8005184,3.5725156901166075,,,,2014,0,43185,01/02/2003,label:musee de france,
8936801,2598935771,Musée Colette,,Place du Château,89520,Saint-Sauveur-en-Puisaye,France,fr,open,47.6173071,3.1989776,,,,2014,4442,1590,01/02/2003,label:musee de france,
8944601,2628533133,Musée Zervos - Maison Romain Rolland,,,89450,Vézelay,France,fr,open,47.4638215,3.743302,,,,2014,6128,2939,01/02/2003,label:musee de france,
8947201,,Musée d'Art et d'Histoire du Puisaye,,,,VILLIERS-SAINT-BENOIT,France,fr,open,,,,,,2014,419,1657,01/02/2003,label:musee de france,
2227801,78123314,Musée d'Art et d'Histoire,,Cour Francis Renaud,22000,Saint-Brieuc,France,fr,open,48.51234775,-2.7619036982498804,,,,2014,0,27473,01/02/2003,label:musee de france,
2901902,5882540291,Musée National de la Marine,,Rue Franklin Roosevelt,29200,Brest,France,fr,open,48.381272,-4.4923642,,,,2014,28916,33485,06/01/2002,label:musee de france,
2903801,,Ecomusée des Monts d'Arrée - Moulins de Kerouat,,,,COMMANA,France,fr,open,,,,,,2014,7486,1922,01/02/2003,label:musee de france,
2921701,84081121,Musée de Pont-Aven,,Rue Louis Lomenech,29930,Pont-Aven,France,fr,open,47.8550965,-3.746406090032833,,,,2014,316,7560,01/02/2003,label:musee de france,
3523803,178814913,Ecomusée du Pays de Rennes,,Route de Châtillon-Sur-Seiche,35230,Noyal-Châtillon-sur-Seiche,France,fr,open,48.07772335,-1.6663543566452403,,,,2014,14326,42581,01/02/2003,label:musee de france,
3536002,92884430,Musée du Château de Vitré,,Rue du Rachapt,35500,Vitré,France,fr,open,48.1260135,-1.2166992529105425,,,,2014,15339,6828,01/02/2003,label:musee de france,
5602301,449218730,Ecomusée de Saint-Dégan,,Rue Park Segal,56400,Brech,France,fr,open,47.7090601,-2.9935749,,,,2014,7431,1962,01/02/2003,label:musee de france,
5618101,2854735858,Musée National de la Marine,,Grand pont,56290,Port-Louis,France,fr,open,47.7102292,-3.3642103,,,,2014,37898,29049,01/02/2003,label:musee de france,
5626002,145189774,Musée d'Histoire et d'Archéologie de Vannes,2,Rue Noé,56000,Vannes,France,fr,open,47.6568685,-2.7579838224637703,,,,2014,1822,3478,01/02/2003,label:musee de france,
1803301,3639383770,Musée Estève,,Rue Édouard Branly,18000,Bourges,France,fr,open,47.0861911,2.396213,,,,2014,0,15725,01/02/2003,label:musee de france,
1805701,5602450107,Musée Emile Chénon,,Rue de la Victoire,18370,Châteaumeillant,France,fr,open,46.5613145,2.1964279,,,,2014,429,709,01/02/2003,label:musee de france,
2813401,182675003,Musée d'Art et d'Histoire de Dreux,,Place du Musée,28100,Dreux,France,fr,open,48.733925,1.3680411794478526,,,,2014,1657,5961,01/02/2003,label:musee de france,
3604601,,Musée George Sand et de la Vallée Noire,,,,LA CHATRE,France,fr,open,,,,,,2014,9800,0,01/02/2003,label:musee de france,
3711501,65229447,"""""""Maison Musée"""" René Descartes""",29,Rue Descartes,37160,Descartes,France,fr,open,46.972620899999995,0.6999355493597434,,,,2014,1458,805,01/02/2003,label:musee de france,
3724801,1935506460,Musée François Rabelais,,Rue de La Devinière,37500,Seuilly,France,fr,open,47.1405133,0.1784807,,,,2014,9854,2523,30/04/2002,label:musee de france,
3726102,73677174,Musée des Beaux-Arts,,Rue Fleury,37000,Tours,France,fr,open,47.39526145000001,0.6950591874529539,,,,2014,21575,40742,06/01/2002,label:musee de france,
3728201,59213253,Musée de Minerve,,Place F. Mitterrand,37290,Yzeures-sur-Creuse,France,fr,closed,46.786094399999996,0.8711447999999989,,,,2014,0,0,01/02/2003,label:musee de france,
4508201,91175188,Musée de la Marine de Loire,,Allée de Lamballe,45110,Châteauneuf-sur-Loire,France,fr,open,47.864703,2.2173067297297298,,,,2014,8480,3331,01/02/2003,label:musee de france,
1006401,7820341496,Musée Napoléon Ier,,Rue du Maréchal Valée,10500,Brienne-le-Château,France,fr,open,48.3890775,4.527967,,,,2014,3643,2096,01/02/2003,label:musee de france,
1038704,,Musée des Beaux-Arts,,,,TROYES,France,fr,open,,,,,,2014,3313,16801,01/02/2003,label:musee de france,
1038707,6454674,Pharmacie Musée de l'Hôtel-Dieu,,Rue de la Cité,10000,Troyes,France,fr,open,48.298989649999996,4.078501153596954,,,,2014,2603,6966,01/02/2003,label:musee de france,
5244801,65662699,Musée Municipal,,Allée Jean-François Lescuyer,52100,Saint-Dizier,France,fr,open,48.63793305,4.948117698073352,,,,2014,0,6710,01/02/2003,label:musee de france,
2A14201,,Musée de l'Alta Rocca,,,,LEVIE,France,fr,open,,,,,,2014,5619,12610,01/02/2003,label:musee de france,
2505605,6354947603,Musée de la résistance et de la Déportation,,Chemin de Ronde de la Citadelle,25000,Besançon,France,fr,open,47.2290324,6.0349109,,,,2014,53441,0,01/02/2003,label:musee de france,
2538802,7372375792,Musée du Château des Ducs de Wurtemberg,,Square Beurnier,25200,Montbéliard,France,fr,open,47.5098603,6.79769,,,,2014,5654,10883,01/02/2003,label:musee de france,
2541801,33921375,Musée de Plein Air des Maisons Comtoises,,Rue du Musée,25360,Nancray,France,fr,open,47.23771675,6.184408422290256,,,,2014,32691,14117,01/02/2003,label:musee de france,
7055001,1592836,Musée Georges Garret,,Place du Trau,70000,Vesoul,France,fr,open,47.6238505,6.155568312596005,,,,2014,0,4875,01/02/2003,label:musee de france,
3947801,,Musée de l'Abbaye/Donations Guy Bardone - René Genis,,,,SAINT-CLAUDE,France,fr,open,,,,,,2014,4101,5846,01/02/2003,label:musee de france,
9001001,34588114,Musée d'Art et d'Histoire,,Allée de l'Option Française,90000,Belfort,France,fr,open,47.63662965,6.864735068130328,,,,2014,24158,0,01/02/2003,label:musee de france,
9711201,6042462812,Ecomusée de Marie-Galante,,Route de Grand-Bourg à Capesterre,97140,Grand-Bourg,France,fr,closed,15.8784483,-61.2995603,,,,2014,0,0,01/02/2003,label:musee de france,
9712001,65841412,Musée Municipal Saint-John Perse,,Rue Nozières,97110,Pointe-à-Pitre,France,fr,open,16.2364273,-61.53584126806761,,,,2014,2240,960,12/12/2002,label:musee de france,
9730201,1024331366,Musée Territorial Alexandre Franconie,1,Avenue du Général de Gaulle,97300,Cayenne,France,fr,open,4.9382912,-52.3344262,,,,2014,2857,5332,01/02/2003,label:musee de france,
9106401,7035962879,Musée Français de la Photographie,,Rue de Paris,91570,Bièvres,France,fr,open,48.762826,2.225102,,,,2014,2446,6128,01/02/2003,label:musee de france,
9111401,48359053,Musée Municipal Robert Dubois-Corneau,,Rue de la Glacière,91800,Brunoy,France,fr,open,48.7003494,2.5007316063279736,,,,2014,67,3237,01/02/2003,label:musee de france,
9204801,137829073,Musée d'Art et d'Histoire,11,Rue des Pierres,92190,Meudon,France,fr,open,48.806285,2.2350911702464784,,,,2014,2115,7958,01/02/2003,label:musee de france,
9206303,,Musée d'Histoire Locale - Mémoire de la Ville,,,,RUEIL-MALMAISON,France,fr,open,,,,,,2014,0,8745,01/02/2003,label:musee de france,
9206301,2703428029,Musée National des Châteaux de Malmaison et de Bois-Préau,,Avenue du Château de la Malmaison,92500,Rueil-Malmaison,France,fr,open,48.8737321,2.1687097,,,,2014,58704,42730,06/01/2002,label:musee de france,
9206401,,Musée des Avelines - Musée d'Art et d'Histoire,,,,SAINT-CLOUD,France,fr,open,,,,,,2014,509,17755,01/02/2003,label:musee de france,
7510503,83913793,Grande Galerie de l'Evolution (Muséum National d'Histoire Naturelle),,Rue Geoffroy Saint-Hilaire,75005,Paris,France,fr,open,48.8421055,2.356243821803625,,,,2014,401799,367931,06/01/2002,label:musee de france,
7510512,7444,Galerie d’entomologie (Muséum national d'histoire naturelle),,,,Paris,France,fr,closed,48.8566969,2.3514616,,,,2014,0,0,06/01/2002,label:musee de france,
7510507,7444,Galerie de Botanique (Muséum National National d'Histoire Naturelle),,,,Paris,France,fr,open,48.8566969,2.3514616,,,,2014,8069,9823,06/01/2002,label:musee de france,
7510405,254033221,Maison de Victor Hugo,6,Place des Vosges,75004,Paris,France,fr,open,48.8548144,2.3661103,,,,2014,27591,149355,08/07/2004,label:musee de france,
7510403,159896046,Crypte Archéologique du Parvis Notre-Dame,,Parvis Notre-Dame - Place Jean-Paul II,75004,Paris,France,fr,open,48.85354265,2.348198116376467,,,,2014,53211,144829,label:musee de france,
7511618,4828705432,Musée National de la Marine,,Villa Marie Vassilieff,75015,Paris,France,fr,open,48.8434128,2.320792,,,,2014,100377,51983,06/01/2002,label:musee de france,
7510706,895871273,Musée National de la Légion d'Honneur et des Ordres de Chevalerie,,Rue de la Légion d'Honneur,75007,Paris,France,fr,open,48.8602845,2.3247488,,,,2014,0,58195,06/01/2002,label:musee de france,
7510905,84511123,Musée de la Vie Romantique,16,Rue Chaptal,75009,Paris,France,fr,open,48.88120505,2.333539383011497,,,,2014,7359,67834,08/07/2004,label:musee de france,
7510802,5304864568,Musée de la Musique,221,Avenue Jean Jaurès,75019,Paris,France,fr,open,48.8901928,2.393712,,,,2014,125789,44834,06/01/2002,label:musee de france,
7511615,79219308,Musée d'Art Moderne de la ville de Paris,,Rue Gaston de Saint-Paul,75116,Paris,France,fr,open,48.8643133,2.2978602225671843,,,,2014,266000,327300,08/07/2004,label:musee de france,
7511201,,Etablissement public de la Porte Dorée - Aquarium Tropical,,,,PARIS,France,fr,open,,,,,,2014,181998,81520,06/01/2002,label:musee de france,
7510304,5918699678,Musée National des Techniques,,Rue Joliot-Curie,91190,Le Moulon,France,fr,open,48.7094092,2.1666145,,,,2014,89424,153455,06/01/2002,label:musee de france,
7710801,1564237,Musée Municipal de Chelles Alfred Bonno,,Rue Louis Eterlet,77500,Chelles,France,fr,open,48.8778455,2.591143882278835,,,,2014,0,2429,01/02/2003,label:musee de france,
7724301,113256131,Musée Gatien Bonnet,,Cour Pierre Herbin,77400,Lagny-sur-Marne,France,fr,open,48.879835,2.707439,,,,2014,0,3905,01/02/2003,label:musee de france,
7753301,249312019,Musée départemental Stéphane Mallarmé,,Quai Stéphane Mallarmé,77870,Vulaines-sur-Seine,France,fr,open,48.43122295,2.747069924160446,,,,2014,1655,2688,01/02/2003,label:musee de france,
9408101,1938023794,"MAC VAL, Musée d'Art Contemporain du Val-de-Marne",,Avenue du Moulin de Saquet,94400,Vitry-sur-Seine,France,fr,open,48.7920535,2.3852432,,,,2014,8237,58425,01/02/2003,label:musee de france,
9501801,80773777,Musée du Vieil Argenteuil,,Rue de Rubelles,95390,Saint-Prix,France,fr,closed,49.01175795,2.264040737016648,,,,2014,0,0,01/02/2003,label:musee de france,
9542801,4459265327,Musée jean-Jacques Rousseau,,Rue du Mont Louis,95160,Montmorency,France,fr,open,48.9869805,2.3215161,,,,2014,1296,1801,01/02/2003,label:musee de france,
7838401,182753888,Musée Zola-Dreyfus,,Rue Pasteur,78670,Médan,France,fr,closed,48.9556992,1.9955895638705745,,,,2014,0,0,23/10/2009,label:musee de france,
7842001,,Musée-Maison Maurice Ravel,,,,MONTFORT-L'AMAURY,France,fr,open,,,,,,2014,1435,178,01/02/2003,label:musee de france,
1119401,186119163,Musée Municipal,,Route des Châteaux,11600,Lastours,France,fr,closed,43.3345386,2.378578108690959,,,,2014,0,0,01/02/2003,label:musee de france,
1126202,92058703,Musée Archéologique - Ensemble monumental de Narbonne,,Rue des Jacobins,11100,Narbonne,France,fr,open,43.1809595,3.004147255208337,,,,2014,0,0,2002-06-13 00:00:00,label:musee de france,
3018905,41832267,Musée des Beaux-Arts,,Rue de la Cité Foulc,30033,Nîmes,France,fr,open,43.83194295,4.360586484823399,,,,2014,894,14274,01/02/2003,label:musee de france,
3412901,,Site Archéologique Lattara - Musée Henri Prades de Montpellier Agglomération,,,,LATTES,France,fr,open,,,,,,2014,14964,11226,01/02/2003,label:musee de france,
3417210,1226892,Musée de l'Hôtel d'Espeyran (Annexe musée Fabre),,Cour de la Mosaïque,34062,Montpellier,France,fr,open,43.6117542,3.8801274326001858,,,,2014,0,0,01/02/2003,label:musee de france,
6613603,1227556,Musée Hyacinthe Rigaud,,Rue de l'Ange,66000,Perpignan,France,fr,open,42.6979518,2.8933879010617485,,,,2014,0,518,01/02/2003,label:musee de france,
6613601,,Musée du Castillet Casa Pairal,,,,PERPIGNAN Cedex,France,fr,open,,,,,,2014,8381,10005,01/02/2003,label:musee de france,
1925101,950074172,Musée du Président Jacques Chirac,,Route du Musée,19800,Sarran,France,fr,open,45.4079599,1.9398374,,,,2014,17301,4931,29/11/2002,label:musee de france,
2309601,6222152324,Musée d'Art et d'Archéologie,,Route de la Cascade,23400,Bourganeuf,France,fr,open,45.9496263,1.7563312,,,,2014,4280,4592,01/02/2003,label:musee de france,
8704101,,Musée René Baubérot,,,,CHATEAUPONSAC,France,fr,open,,,,,,2014,2646,542,01/02/2003,label:musee de france,
5415401,113033,Les Sources d'Hercule,,,54120,Deneuvre,France,fr,open,48.4443122,6.7356749,,,,2014,2603,774,01/02/2003,label:musee de france,
5439502,64003170,Muséum- Aquarium de Nancy,,Rue Sainte-Catherine,54100,Nancy,France,fr,open,48.6947248,6.187939874919698,,,,2014,28086,60259,01/02/2003,label:musee de france,
5439504,,Palais des ducs de Lorraine - Musée Historique Lorrain,,,,NANCY,France,fr,open,,,,,,2014,27287,40223,01/02/2003,label:musee de france,
5546701,6051104311,Musée Départemental Raymond Poincaré,14,Rue du Château,55300,Sampigny,France,fr,open,48.827556,5.5077794,,,,2014,0,5410,01/02/2003,label:musee de france,
5554501,1369481,Musée de la Princerie,,Impasse de la Magdeleine,55100,Verdun,France,fr,open,49.161075,5.382631625025933,,,,2014,1873,2368,01/02/2003,label:musee de france,
9720903,,Muséum d'Histoire Naturelle,,,,FORT-DE-FRANCE TERRE-SAINVILLE,France,fr,closed,,,,,,2014,0,0,01/02/2003,label:musee de france,
9722001,1149383903,Ecomusée de la Martinique,,N 5,97211,Rivière-Pilote,France,fr,open,14.460341,-60.9094743,,,,2014,5555,3335,01/02/2003,label:musee de france,
1225401,1434993410,Musée des Arts et Métiers Traditionnels,,C 2,12330,Salles-la-Source,France,fr,open,44.437582,2.5141463,,,,2014,4948,2458,01/02/2003,label:musee de france,
3155509,134123637,Muséum d'Histoire Naturelle,,Allée des Justes des Nations,31400,Toulouse,France,fr,open,43.59334975,1.4495300359978467,,,,2014,144037,150530,06/01/2002,label:musee de france,
3155504,22718219,Musée des Augustins,,Rue Antonin Mercié,31000,Toulouse,France,fr,open,43.6009417,1.4463433320120154,,,,2014,76180,68574,06/01/2002,label:musee de france,
6530601,,Musée-château Gaston Phébus,,,,MAUVEZIN,France,fr,open,,,,,,2014,26980,700,01/02/2003,label:musee de france,
4604001,,Musée de Préhistoire Amédée Lémozi,,,,CABRERETS,France,fr,open,,,,,,2014,77500,0,01/02/2003,label:musee de france,
4604201,62114469,Musée Henri Martin,,Rue Émile Zola,46000,Cahors,France,fr,open,44.4484051,1.4381918459159788,,,,2014,4122,7753,01/02/2003,label:musee de france,
4630901,1074571594,Musée de l'Automate,,Place de l'Abbaye,46200,Souillac,France,fr,open,44.8936695,1.4768774,,,,2014,16729,3168,01/02/2003,label:musee de france,
8106502,83184155,Musée Jean Jaurès,2,Place Pélisson,81100,Castres,France,fr,open,43.607194,2.240496445775623,,,,2014,3897,9400,06/01/2002,label:musee de france,
8109901,1794967910,Musée des Beaux-Arts,,Boulevard Foucault,81600,Gaillac,France,fr,open,43.8949812,1.8980683,,,,2014,1235,2325,01/02/2003,label:musee de france,
8122001,,Musée du Pays Rabastinois,,,,RABASTENS,France,fr,open,,,,,,2014,1002,3415,01/02/2003,label:musee de france,
8212102,127805191,Musée Ingres,,Rue Marie Lafon,82000,Montauban,France,fr,open,44.01688865,1.3514607739557976,,,,2014,15168,22491,06/01/2002,label:musee de france,
8215501,6652846786,Musée de Préhistoire,,Place de la Halle,82140,Saint-Antonin-Noble-Val,France,fr,closed,44.1518591,1.7565481,,,,2014,0,0,01/02/2003,label:musee de france,
5920501,1719221067,Musée Municipal d'Escaudain,,Rue Paul Bert,59124,Escaudain,France,fr,open,50.3330601,3.3443559,,,,2014,0,374,01/02/2003,label:musee de france,
5929501,238855854,Musée Municipal d'Hazebrouck,,Rue du Musée,59190,Hazebrouck,France,fr,open,50.7213028,2.5350201,,,,2014,5423,0,01/02/2003,label:musee de france,
5937501,,Musée d'Histoire Locale de Marchiennes,,,,MARCHIENNES,France,fr,open,,,,,,2014,157,1523,01/02/2003,label:musee de france,
5951201,799753358,La Piscine - Musée d'Art et d'Industrie André Diligent de Roubaix,,Rue Gustave Charpentier,59170,Croix,France,fr,open,50.67030335,3.1729459395646256,,,,2014,124728,79091,01/02/2003,label:musee de france,
5955501,72886174,Musée du Verre,1,Rue du Général de Gaulle,59216,Sars-Poteries,France,fr,open,50.1641293,4.0237244496073945,,,,2014,8962,6808,01/02/2003,label:musee de france,
5900901,,"LAM - Lille Métropole Musée d'Art Moderne, d'Art Contemporain et d'Art Brut",,,,VILLENEUVE-D'ASCQ,France,fr,open,,,,,,2014,92864,48151,01/02/2003,label:musee de france,
6216001,1022553,Musée de Boulogne-sur-Mer,,Rue de Bernet,62200,Boulogne-sur-Mer,France,fr,open,50.72565845,1.6177348677097347,,,,2014,16257,13827,01/02/2003,label:musee de france,
6219301,,Musée des Beaux-Arts et de la Dentelle,,,,CALAIS,France,fr,open,,,,,,2014,9053,9230,01/02/2003,label:musee de france,
6241301,110215831,Musée d'Histoire et d'Archéologie,,Rue du Musée,62440,Harnes,France,fr,open,50.447528,2.9107465,,,,2014,0,2128,01/02/2003,label:musee de france,
1402101,128118203,Musée du Débarquement,,Cale Maréchal Montgomery,14117,Arromanches-les-Bains,France,fr,open,49.340228800000006,-0.6204979707551881,,,,2014,335258,15303,01/02/2003,label:musee de france,
1405501,,Musée Langlois,,,,BEAUMONT-EN-AUGE,France,fr,closed,,,,,,2014,0,0,01/02/2003,label:musee de france,
1411803,6041330527,Musée d'Initiation à la Nature,,Rue du Carel,14000,Caen,France,fr,open,49.1801396,-0.3735491,,,,2014,0,6014,01/02/2003,label:musee de france,
1433302,4377367191,Musée Eugène Boudin,,Rue de l'Homme de Bois,14600,Honfleur,France,fr,open,49.4223549,0.2305791,,,,2014,34354,2244,01/02/2003,label:musee de france,
1437001,8193839563,Musée de la Mine,,Rue de la Fosse Frandemiche,14330,Le Molay-Littry,France,fr,open,49.2426092,-0.8788501,,,,2014,3297,894,01/02/2003,label:musee de france,
1451201,7579732101,Musée du Château,,Rue des Léopards,14110,Vire,France,fr,open,48.8589438,-0.5682422,,,,2014,3076,1032,01/02/2003,label:musee de france,
1458201,329998597,Château de Saint-Germain de Livet,,D 268,14100,Saint-Germain-de-Livet,France,fr,open,49.0890928,0.2143756760222387,,,,2014,10572,6559,01/02/2003,label:musee de france,
1471501,86513731,Musée de Trouville - Villa Montebello,,Rue du Général Leclerc,14360,Trouville-sur-Mer,France,fr,open,49.3713839,0.08430517462516637,,,,2014,13313,0,01/02/2003,label:musee de france,
5012901,1932681880,Muséum Emmanuel Liais,,Rue de l'Abbaye,50100,Cherbourg-en-Cotentin,France,fr,open,49.6429877,-1.6294662,,,,2014,0,12759,01/02/2003,label:musee de france,
5052301,2390534012,Ferme-Musée du Cotentin,,Chemin de Beauvais,50480,Sainte-Mère-Église,France,fr,open,49.4148092,-1.3183281,,,,2014,8247,3622,17/02/2014,label:musee de france,
5061501,,Musée Régional du Cidre et du Calvados,,,,VALOGNES,France,fr,open,,,,,,2014,2262,2489,01/02/2003,label:musee de france,
6100101,1511784502,Musée des Beaux-Arts et de la Dentelle,,Passage de la Porte de Lancrel,61000,Alençon,France,fr,open,48.4316406,0.0835809,,,,2014,9969,8211,01/02/2003,label:musee de france,
6116801,,Musée Municipal - Musée du Jouet,,,,LA FERTE-MACE,France,fr,open,,,,,,2014,675,0,01/02/2003,label:musee de france,
6129301,4932646613,Musée du Percheron,,Rue du Québec,61190,Mortagne-au-Perche,France,fr,closed,48.590346,0.6553656,,,,2014,0,0,01/02/2003,label:musee de france,
2737501,1281576361,Musée Municipal,,Place Ernest Thorel,27400,Louviers,France,fr,open,49.214913,1.1684299,,,,2014,0,6205,01/02/2003,label:musee de france,
7616401,479793340,Museoseine,,Véloroute du Val de Seine,76490,Rouen,France,fr,closed,49.5243684,0.7222076852299901,,,,2014,0,0,01/02/2003,label:musee de france,
7654004,64180958,Musée des Antiquités de la Seine-Maritime,198,Rue Beauvoisine,76000,Rouen,France,fr,open,49.4469796,1.0994713257847062,,,,2014,1716,28460,01/02/2003,label:musee de france,
7654006,64181345,Musée Le Secq des Tournelles,2,Rue Jacques Villon,76000,Rouen,France,fr,open,49.4444344,1.0952946837337665,,,,2014,4182,7385,01/02/2003,label:musee de france,
4410904,6808838,Musée du Château des Ducs de Bretagne,4,Place Marc Elder,44000,Nantes,France,fr,open,47.21609735,-1.5499958913608,,,,2014,127097,138367,01/02/2003,label:musee de france,
4417601,,Maison de l'Eclusier /Parc Naturel Régional de Brière,,,,SAINT-MALO DE GUERSAC,France,fr,closed,,,,,,2014,0,0,01/02/2003,label:musee de france,
4900702,126922667,Musée Pincé,32,Rue Lenepveu,49100,Angers,France,fr,closed,47.4720515,-0.5520486041666655,,,,2014,0,0,01/02/2003,label:musee de france,
4900703,624532610,Musée Jean Lurcat et de la Tapisserie Contemporaine,,Rue Gay-Lussac,49035,Angers,France,fr,open,47.4780639,-0.5575814,,,,2014,15966,45130,01/02/2003,label:musee de france,
4901801,1455968994,Musée d'Art et d'Histoire,,Rue du Mail,,Baugé,France,fr,open,47.5414021,-0.1018237,,,,2014,0,5876,01/02/2003,label:musee de france,
4923401,238336580,Musée Jules-Desbois,,Place Jules Desbois,49390,Parçay-les-Pins,France,fr,open,47.4364575,0.16001628939992282,,,,2014,2903,1891,23/10/2002,label:musee de france,
4935301,125991770,Musée de l'Ardoise,32,Chemin de la Maraichère,49800,Trélazé,France,fr,open,47.446912,-0.48919949107143107,,,,2014,8220,1810,01/02/2003,label:musee de france,
5313001,3773677487,Musée du Vieux Château,,Rue du Val de Mayenne,53000,Laval,France,fr,open,48.068577,-0.7707286,,,,2014,6850,18765,01/02/2003,label:musee de france,
5313002,67786025,Musée des Sciences - CCSTI,,Place de Hercé,53000,Laval,France,fr,open,48.0657933,-0.7704053486072425,,,,2014,5966,45000,01/02/2003,label:musee de france,
5314701,1934021701,Musée du Château de Mayenne,,Quai Carnot,53100,Mayenne,France,fr,open,48.3028395,-0.6179027,,,,2014,11137,7796,01/02/2003,label:musee de france,
7217901,363960591,Musée Espace Faïence de Malicorne,,Rue Victor Hugo,72270,Malicorne-sur-Sarthe,France,fr,open,47.813164,-0.08338928389830455,,,,2014,7149,2619,23/10/2009,label:musee de france,
8512901,113036200,Historial de la Vendée,,Allée Paul Bazin,85170,Les Lucs-sur-Boulogne,France,fr,open,46.845717,-1.4812348862413316,,,,2014,34772,38461,01/02/2003,label:musee de france,
8514601,76083845,Musée du Nord de la Vendée,,Place de l'Hôtel de Ville,85600,Montaigu,France,fr,closed,46.974196,-1.3132451686989501,,,,2014,0,0,01/02/2003,label:musee de france,
8516301,,Musée de la Construction Navale Artisanale,,,,NOIRMOUTIER EN L'ILE,France,fr,closed,,,,,,2014,0,0,01/02/2003,label:musee de france,
0240802,202812175,Musée d'Art et d'Archéologie,,Rue des Moulins,02250,Marle,France,fr,open,49.7417279,3.771423276198486,,,,2014,1187,4311,01/02/2003,label:musee de france,
0268401,,Musée de la Vie Rurale et Forestière,,,,SAINT-MICHEL-EN-THIERACHE,France,fr,closed,,,,,,2014,0,0,01/02/2003,label:musee de france,
6047101,2403483347,Musée du Noyonnais,,Rue de l'Évéché,60400,Noyon,France,fr,open,49.5815691,3.0004427,,,,2014,1402,1921,01/02/2003,label:musee de france,
8071601,,Musée Départemental de l'Abbaye de Saint-Riquier,,,,ABBEVILLE,France,fr,closed,,,,,,2014,0,0,01/02/2003,label:musee de france,
8002102,3057397279,Musée de l'Hôtel de Berny,36,Rue Victor Hugo,80000,Amiens,France,fr,closed,49.8927739,2.3029603,,,,2014,0,0,01/02/2003,label:musee de france,
1610202,1021853,Musée des Arts du Cognac (Annexe musée municipal),Place,Place de la Salle Verte,16100,Cognac,France,fr,open,45.695510549999995,-0.3321661455206766,,,,2014,6143,5285,01/02/2003,label:musee de france,
1716801,92529363,Musée Régional de Fouras,,Place Vauban,17450,Fouras,France,fr,open,45.986003999999994,-1.0975170518659043,,,,2014,6857,3707,01/02/2003,label:musee de france,
1730006,119814128,Muséum d'Histoire Naturelle,,Rue Albert 1er,17000,La Rochelle,France,fr,open,46.164811,-1.1511445969910366,,,,2014,10116,34856,06/01/2002,label:musee de france,
1729903,,Hôtel Hèbre de Saint-Clément - Musée d'Art et d'Histoire,,,,ROCHEFORT,France,fr,open,,,,,,2014,9023,9901,28/03/2002,label:musee de france,
1736901,4200451910,Musée Ernest Cognacq,,Avenue Victor Bouthillier,17410,Saint-Martin-de-Ré,France,fr,open,46.2054197,-1.3652403,,,,2014,7062,5066,01/02/2003,label:musee de france,
7904201,1405861,Musée des Tumulus de Bougon,,Route de Pamproux,79800,Bougon,France,fr,open,46.3779715,-0.06712564274678495,,,,2014,12887,5864,01/02/2003,label:musee de france,
7920201,7281748506,Musée d'Art et d'Histoire Georges Turpin,1,Rue de la Vau Saint-Jacques,79200,Parthenay,France,fr,open,46.6519796,-0.2493419,,,,2014,0,8622,01/02/2003,label:musee de france,
0600401,68051130,Musée Picasso,,Place Mariejol,06600,Antibes,France,fr,open,43.58070895,7.128259617884984,,,,2014,113493,44483,01/02/2003,label:musee de france,
0601802,,Musée d'Histoire Locale,,,,BIOT,France,fr,open,,,,,,2014,3392,0,01/02/2003,label:musee de france,
0602902,2824215844,Musée de la Mer,,Allée des Eucalyptus,06407,Cannes,France,fr,open,43.523904,7.0453202,,,,2014,47990,38898,01/02/2003,label:musee de france,
0608303,137783866,Musée de Préhistoire Régionale,,Rue Lieutenant Bosano,06500,Menton,France,fr,open,43.777006,7.503394160358056,,,,2014,0,12036,01/02/2003,label:musee de france,
0608802,2264574278,Musée d'Art et d'Histoire,,Fossés de la Citadelle,06230,Villefranche-sur-Mer,France,fr,open,43.701601,7.3106059,,,,2014,0,51063,01/02/2003,label:musee de france,
1300101,34505703,Musée du Pavillon de Vendôme,,Rue Cardinale,13626,Aix-en-Provence,France,fr,open,43.5254678,5.4526102,,,,2014,4850,10312,01/02/2003,label:musee de france,
1300106,,Musée Paul Arbaud,,,,AIX-EN-PROVENCE,France,fr,closed,,,,,,2014,0,0,01/02/2003,label:musee de france,
1301104,,Fondation Louis Jou,,,,LES-BAUX-DE-PROVENCE,France,fr,closed,,,,,,2014,0,0,01/02/2003,label:musee de france,
1320101,67708610,Musée Grobet-Labadié,,Place Henri Dunant,13001,Marseille,France,fr,open,43.30331955,5.392977868575647,,,,2014,0,2943,01/02/2003,label:musee de france,
1320201,168685674,Musée des Civilisations de l'Europe et de la Méditerranée - MuCem,7,Promenade Robert Laffont,13002,Marseille,France,fr,open,43.29672875,5.361025473368164,,,,2014,416008,258043,06/01/2002,label:musee de france,
1305509,2365711963,Musée de la Mode,,Avenue Clot Bey,13008,Marseille,France,fr,closed,43.2572605,5.3820342,,,,2014,0,0,01/02/2003,label:musee de france,
1310302,,Musée de Salon et de la Crau,,,,SALON-DE-PROVENCE,France,fr,open,,,,,,2014,0,0,01/02/2003,label:musee de france,
0500301,,Musée du Vieux Queyras,,,,AIGUILLES,France,fr,closed,,,,,,2014,0,0,01/02/2003,label:musee de france,
8300201,,Musée des tourneurs sur Bois,,,,AIGUINES,France,fr,open,,,,,,2014,3151,1088,01/02/2003,label:musee de france,
8305001,179782164,Musée Municipal,2,Place Blanqui,83990,Saint-Tropez,France,fr,open,43.2696385,6.635539872302159,,,,2014,0,6013,01/02/2003,label:musee de france,
8306901,112363959,Musée Municipal,1-3,Rue Émile Leclerc,77000,Melun,France,fr,open,48.54554555,2.6529119346368715,,,,2014,4744,6694,01/02/2003,label:musee de france,
8313703,2196651226,Musée d'Art et d'Archéologie,113,Boulevard Général Leclerc,83000,Toulon,France,fr,open,43.1263031,5.9272107,,,,2014,0,26803,01/02/2003,label:musee de france,
8400701,83784740,Muséum d'Histoire Naturelle Esprit Requien,27,Rue de la République,84000,Avignon,France,fr,open,43.9458915,4.806026218689352,,,,2014,0,15394,06/01/2002,label:musee de france,
8403105,1802571381,Musée Sobirats,,Rue du Collège,84200,Carpentras,France,fr,open,44.054376,5.046289,,,,2014,404,1407,01/02/2003,label:musee de france,
8413701,88549191,Musée Archéologique Théo Desplans,,Rue Burrus,84110,Vaison-la-Romaine,France,fr,open,44.2428537,5.074630722674918,,,,2014,66615,16047,01/02/2003,label:musee de france,
0105301,,Musée du Brou,,,,BOURG-EN-BRESSE,France,fr,open,,,,,,2014,53088,41560,01/02/2003,label:musee de france,
0105302,,Musée Départemental des Pays De l'Ain,,,,BOURG-EN-BRESSE,France,fr,open,,,,,,2014,0,0,01/02/2003,label:musee de france,
0121801,210386723,Musée du Bugey-Valmorey,,Impasse de la Forge,01260,Belley,France,fr,open,45.9296855,5.7266927293314165,,,,2014,2869,2007,01/02/2003,label:musee de france,
0128301,1536396604,Musée du Peigne et de la Plasturgie,,Rue Capitaine Montreal,01100,Veyziat,France,fr,open,46.2607789,5.6465246,,,,2014,2408,2716,01/02/2003,label:musee de france,
0113701,700244363,Musée Départemental du Revermont,,Rue Principale,01370,Bourg-en-Bresse,France,fr,open,46.30032775,5.389046761156977,,,,2014,3894,7468,01/02/2003,label:musee de france,
0700501,,MuséAL - Musée Archéologique d'Alba,,,,ALBA-LA-ROMAINE,France,fr,open,,,,,,2014,53604,0,17/02/2014,label:musee de france,
0716801,271465,Cité de Préhistoire,,,07150,Orgnac-l'Aven,France,fr,open,44.3055791,4.4333406,,,,2014,131832,11321,01/02/2003,label:musee de france,
7428001,4460540284,Musée des Vallées de Thônes,1,Rue Blanche,74230,Thônes,France,fr,open,45.8816772,6.3240667,,,,2014,32,0,01/02/2003,label:musee de france,
7428102,5537445278,Musée du Chablais,2,Rue Michaud,74200,Thonon-les-Bains,France,fr,open,46.3735929,6.4782107,,,,2014,4839,0,01/02/2003,label:musee de france,
3801201,875500989,Musée Gallo-Romain,16,Kielenstraat,3700,Tongeren,België / Belgique / Belgien,be,open,50.7814543,5.465715540741746,,,,2014,4574,1365,01/02/2003,label:musee de france,
3808201,,Musée - Parc Archéologique du Lac de Paladru,,,,CHARAVINES,France,fr,open,,,,,,2014,4333,1598,01/02/2003,label:musee de france,
3826901,1654912102,Musée Matheysin,,Rue Colonel Escallon,38350,La Mure,France,fr,open,44.9046933,5.7845917,,,,2014,505,1166,01/02/2003,label:musee de france,
3854403,2675390826,Musée des Beaux-Arts et d'Archéologie,,Place Miremont,38200,Vienne,France,fr,closed,45.5239956,4.8748576,,,,2014,0,0,01/02/2003,label:musee de france,
4210601,,Musée Historial,,,,GREZOLLES,France,fr,closed,,,,,,2014,0,0,01/02/2003,label:musee de france,
4217301,,Musée du Vieux Pommiers,,,,POMMIERS-EN-FOREZ,France,fr,closed,,,,,,2014,0,0,01/02/2003,label:musee de france,
4221804,49047701,Musée de la Mine / Site Couriot,3,Boulevard Maréchal Franchet d'Espèrey,69400,Saint-Étienne,France,fr,open,45.4382508,4.376131713032282,,,,2014,28630,30486,01/02/2003,label:musee de france,
4223001,7419064519,Musée Municipal,,Place de la Madeleine,42260,Saint-Germain-Laval,France,fr,closed,45.8301288,4.0106,,,,2014,0,0,01/02/2003,label:musee de france,
4231801,,Musée Rural,,,,USSON-EN-FOREZ,France,fr,open,,,,,,2014,3542,971,01/02/2003,label:musee de france,
6938102,2502213077,Musée des Beaux-Arts,,Rue du Président Édouard Herriot,69001,Lyon,France,fr,open,45.766606,4.834343,,,,2014,104904,246457,06/01/2002,label:musee de france,
6923501,131339006,Musée Archéologique,,D 502,69560,Saint-Romain-en-Gal,France,fr,open,45.5291012,4.870453852740197,,,,2014,22595,57839,01/02/2003,label:musee de france,
6926401,2649845820,Musée Paul Dini,,Rue Grenette,69400,Villefranche-sur-Saône,France,fr,open,45.9908656,4.7211731,,,,2014,5020,18777,01/02/2003,label:musee de france,
7306502,55112807,Musée Savoisien,,Place Métropole,73000,Chambéry,France,fr,open,45.56549205,5.922931048911965,,,,2014,2281,23046,06/01/2002,label:musee de france,
7306504,51263801,Muséum d'histoire naturelle,,Avenue de Lyon,73000,Chambéry,France,fr,closed,45.564102399999996,5.916291852044658,,,,2014,0,0,01/02/2003,label:musee de france,
6702101,79550929,Musée de la Folie Marco,,Rue du Docteur Sultzer,67140,Barr,France,fr,open,48.410266199999995,7.4511442216483434,,,,2014,1865,2685,01/02/2003,label:musee de france,
6718002,606195509,Musée Alsacien,,Place Joseph Thierry,67500,Haguenau,France,fr,open,48.8147979,7.7893977,,,,2014,1136,2920,01/02/2003,label:musee de france,
6748202,239825772,Musée Archéologique,,Rue du Bain-aux-Roses,67065,Strasbourg,France,fr,open,48.5808521,7.7525857,,,,2014,18845,31711,06/01/2002,label:musee de france,
6748204,239825781,Musée des Arts Décoratifs,,Place du Marché aux Poissons,67065,Strasbourg,France,fr,open,48.5807532,7.7523558,,,,2014,25853,31526,01/02/2003,label:musee de france,
6748203,239830896,Musée des Beaux-Arts,,Place du Marché aux Poissons,67065,Strasbourg,France,fr,open,48.5806606,7.7521404,,,,2014,27783,25053,01/02/2003,label:musee de france,
6754401,167263621,Musée Westercamp,,Rue du Musée,67160,Wissembourg,France,fr,open,49.0389525,7.944872205882353,,,,2014,0,6492,01/02/2003,label:musee de france,
6800401,5144762817,Musée Sundgauvien d'Altkirch,38,Rue de Luppach,68480,Vieux-Ferrette,France,fr,open,47.5040397,7.3041592,,,,2014,546,3420,01/02/2003,label:musee de france,
6806301,6211249261,Musée de la Porte de Thann,,Rue Haffner,68700,Cernay,France,fr,open,47.8099726,7.1731847,,,,2014,400,148,01/02/2003,label:musee de france,
6822405,4551159534,Cité du Train,,Rue Alfred de Glehn,68200,Mulhouse,France,fr,open,47.7500026,7.2938678,,,,2014,62268,28804,18/11/2002,label:musee de france,
6822404,449007880,Musée EDF Electropolis,,Autodrome du Musée de l'Automobile,68100,Mulhouse,France,fr,open,47.7612848,7.327971551196445,,,,2014,28011,12477,01/02/2003,label:musee de france,
6822403,449007880,Musée National de l'Automobile - Collection Schlumpf,,Autodrome du Musée de l'Automobile,68100,Mulhouse,France,fr,open,47.7612848,7.327971551196445,,,,2014,159826,31117,01/02/2003,label:musee de france,
6824801,,Maison du Sundgau - Musée Paysan,,,,OLTINGUE,France,fr,open,,,,,,2014,1036,330,01/02/2003,label:musee de france,
2432203,75346425,Musée Gallo-Romain de Vesunna,,Rue 26e Régiment d'Infanterie,24000,Périgueux,France,fr,open,45.179478599999996,0.7132096320585205,,,,2014,17275,13360,23/10/2009,label:musee de france,
2437901,,Musée du Site Médiéval,,,,SAINT-AVIT-SENIEUR,France,fr,closed,,,,,,2014,0,0,01/02/2003,label:musee de france,
3306304,80024893,Musée d'Aquitaine,,Musée d'Aquitaine,33000,Bordeaux,France,fr,open,44.8356189,-0.5746906101232725,,,,2014,31540,122816,06/01/2002,label:musee de france,
3324301,,Musée des Beaux-Arts et d'Archéologie,,,,LIBOURNE,France,fr,open,,,,,,2014,0,8385,01/02/2003,label:musee de france,
3354701,161041079,Musée Municipal,,Impasse Dupeyron,33730,Villandraut,France,fr,closed,44.457179,-0.372994201515152,,,,2014,0,0,01/02/2003,label:musee de france,
4024601,253999961,Ecomusée de la Grande Lande,,Route de la Gare,40630,Sabres,France,fr,open,44.14936935,-0.7468561714204113,,,,2014,68470,14321,01/02/2003,label:musee de france,
4715701,155714123,Musée Municipal Albert Marzelles,,Rue Abel Boyé,47200,Marmande,France,fr,open,44.4988715,0.1660289087830012,,,,2014,0,5571,01/02/2003,label:musee de france,
6410202,72701913,Musée Bonnat-Helleu - Musée des Beaux-Arts de Bayonne,,Rue Frédéric Bastiat,64100,Bayonne,France,fr,open,43.49209785,-1.4720849092568902,,,,2014,0,1716,01/02/2003,label:musee de france,
6424901,71287357,Musée Municipal de Guéthary,165,Avenue du Général de Gaulle,64210,Guéthary,France,fr,open,43.4210745,-1.6090083003559483,,,,2014,1156,2139,01/02/2003,label:musee de france,
0319501,,Musée Rieckotter,,,,NERIS-LES-BAINS,France,fr,open,,,,,,2014,355,335,01/02/2003,label:musee de france,
6301001,4008056943,Musée de la Dentelle,,Ancienne Route Nationale,63220,Arlanc,France,fr,open,45.4143324,3.7244768,,,,2014,983,37,01/02/2003,label:musee de france,
6311303,67552132,Muséum d'Histoire Naturelle Henri-Lecoq,15,Rue Bardoux,63000,Clermont-Ferrand,France,fr,open,45.774145950000005,3.0884366874758022,,,,2014,2884,21238,06/01/2002,label:musee de france,
6347001,300341262,Musée Municipal Marcel Sahut,,Rue des Écoles,63530,Volvic,France,fr,closed,45.872425,3.038987176470588,,,,2014,0,0,01/02/2003,label:musee de france,
2123106,23363257,"Musée de la Vie Bourguignonne, Perrin de Puycousin",,Rue du Chaignot,21000,Dijon,France,fr,open,47.31745415,5.0380257629051215,,,,2014,0,33358,01/02/2003,label:musee de france,
2123105,255935624,Muséum - Jardin des Sciences,,Avenue Albert 1er,21000,Dijon,France,fr,open,47.3218523,5.0289424,,,,2014,6390,105318,06/01/2002,label:musee de france,
2123102,1493118991,Musée Archéologique,,Place Saint-Bénigne,21000,Dijon,France,fr,open,47.3216174,5.0348411,,,,2014,0,29833,01/02/2003,label:musee de france,
2126501,480527098,Musée Noisot,,Rue de la Perrière,21220,Fixin,France,fr,open,47.245420300000006,4.9624034254665155,,,,2014,327,215,01/02/2003,label:musee de france,
5821501,,Musée Ernest Guédon,,,,POUILLY-SUR-LOIRE,France,fr,closed,,,,,,2014,0,0,01/02/2003,label:musee de france,
5822701,,Musée du Grès de Puisaye,,,,SAINT-AMAND-EN-PUISAYE,France,fr,open,,,,,,2014,1863,0,01/02/2003,label:musee de france,
7101402,2380355755,Musée Rolin,,Place Saint-Louis,71400,Autun,France,fr,open,46.9456553,4.2993665,,,,2014,14709,6659,01/02/2003,label:musee de france,
7101404,223582725,Museum d'Histoire Naturelle Jacques de La Comble,,Allée Jacques de la Comble,71400,Autun,France,fr,open,46.9499423,4.3172422,,,,2014,1453,2137,06/01/2002,label:musee de france,
7115301,2018713809,Ecomusée de la Communauté Le Creusot-Monceau-Les-Mines,,Rue Jules Guesde,71200,Le Creusot,France,fr,open,46.8055361,4.424299,,,,2014,3863,8201,01/02/2003,label:musee de france,
7134202,2430526351,Musée Municipal,,Avenue de la Gare,71600,Paray-le-Monial,France,fr,closed,46.4480468,4.112514,,,,2014,0,0,01/02/2003,label:musee de france,
8902403,1256497741,Musée Leblanc-Duvernois,,Rue Gaston Gallimard,89600,Saint-Florentin,France,fr,open,48.0013166,3.7283151,,,,2014,0,1049,01/02/2003,label:musee de france,
8934401,2909216095,Musée de l'Aventure du Son,,Place de l'Hôtel de Ville,89170,Saint-Fargeau,France,fr,open,47.6414558,3.0709553,,,,2014,3628,396,18/04/2008,label:musee de france,
2205001,95903744,Musée du Château de Dinan,,Promenade des Petits Fossés,22100,Dinan,France,fr,open,48.450287599999996,-2.0449255728476867,,,,2014,18022,7333,01/02/2003,label:musee de france,
2209301,123094895,Musée Mathurin Meheut,,Rue du Docteur Calmette,22400,Saint-Brieuc,France,fr,open,48.469658,-2.5154268059467917,,,,2014,7613,1256,02/05/2002,label:musee de france,
2903901,3986935,Musée de la Pêche,,Rue Militaire,29900,Concarneau,France,fr,open,47.87218475,-3.916013041508858,,,,2014,20256,14897,01/02/2003,label:musee de france,
2923201,1162498487,Musée des Beaux-Arts,,Place Saint-Corentin,29000,Quimper,France,fr,open,47.996236,-4.102342,,,,2014,77888,13880,01/02/2003,label:musee de france,
2923202,94312010,Musée Départemental Breton,1,Rue du Roi Gradlon,29000,Quimper,France,fr,open,47.9953725,-4.1025369543379,,,,2014,22749,23724,01/02/2003,label:musee de france,
3528801,3275333600,Musée International du Long-Cours Cap-Hornier,,Cale Solidor,35400,Saint-Malo,France,fr,open,48.6340431,-2.0260137,,,,2014,6620,5065,01/02/2003,label:musee de france,
1803302,64598357,Musée des Arts Décoratifs,,Rue de l'Hôtel Lallemant,18000,Bourges,France,fr,open,47.0850865,2.3983016387544134,,,,2014,0,18628,01/02/2003,label:musee de france,
1803303,64604953,Musée du Berry,4,Rue des Arènes,18000,Bourges,France,fr,open,47.085300149999995,2.39267207904075,,,,2014,0,16313,01/02/2003,label:musee de france,
1819701,2126258013,Musée Saint-Vic,,Cours Manuel,18200,Saint-Amand-Montrond,France,fr,open,46.7214136,2.507645,,,,2014,0,4367,01/02/2003,label:musee de france,
2819601,2288529939,Musée Marcel Proust,,Rue des Trois Maries,28120,Illiers-Combray,France,fr,open,48.2996594,1.2430508,,,,2014,4363,326,01/02/2003,label:musee de france,
3600601,2416267792,Musée de la Chemiserie et de l'Elégance Masculine,,Rue Charles Brillaud,36200,Argenton-sur-Creuse,France,fr,open,46.5884724,1.5182182,,,,2014,3199,4358,01/02/2003,label:musee de france,
3608801,238746663,Musée de l'Hospice Saint-Roch,,Rue de l'Hospice Saint-Roch,36100,Issoudun,France,fr,open,46.944976,1.9942319952380998,,,,2014,374,16282,02/05/2002,label:musee de france,
3601801,214892,Musée Ornithologique (Ecomusée de la Brenne),,Cour du Cheval Blanc,77300,Fontainebleau,France,fr,open,48.4023346,2.7005387366907625,,,,2014,1533,1442,01/02/2003,label:musee de france,
3711301,2188754054,Musée de Préhistoire du Grand Pressigny,,Rue des Remparts,37350,Le Grand-Pressigny,France,fr,open,46.9218966,0.8034128,,,,2014,9742,6561,30/04/2002,label:musee de france,
3722601,2180497491,Musée Municipal,1,Rue de la Paix,37800,Maillé,France,fr,open,47.0523157,0.5806916,,,,2014,0,335,01/02/2003,label:musee de france,
3726101,38576800,Muséum d'Histoire Naturelle,3,Rue du Président Merville,37000,Tours,France,fr,open,47.39461145,0.6836901302839116,,,,2014,10476,21449,01/02/2003,label:musee de france,
3726105,40514601,Musée du Compagnonnage,2,Place Anatole France,37000,Tours,France,fr,open,47.39641815,0.6869935971502714,,,,2014,27806,17145,01/02/2003,label:musee de france,
3726103,38546705,Musée de l'Hôtel Goüin,25,Rue du Commerce,37000,Tours,France,fr,closed,47.3953091,0.6846798555262408,,,,2014,0,0,01/02/2003,label:musee de france,
4113601,86513731,Musée de la Corbillière,,Rue du Général Leclerc,14360,Trouville-sur-Mer,France,fr,open,49.3713839,0.08430517462516637,,,,2014,0,900,01/02/2003,label:musee de france,
4523403,152119467,Musée des Beaux-Arts,1,Rue Fernand Rabier,45000,Orléans,France,fr,open,47.90265,1.9097666942148757,,,,2014,7483,44056,06/01/2002,label:musee de france,
1026801,3817901518,Musée Camille Claudel,,Rue Gustave Flaubert,10400,Nogent-sur-Seine,France,fr,open,48.4943857,3.5006636,,,,2014,1635,4168,01/02/2003,label:musee de france,
1038702,73124719,Musée Historique de Troyes et de la Champagne,,Rue de la Crosse,10000,Troyes,France,fr,open,48.29995,4.082291342005172,,,,2014,0,0,01/02/2003,label:musee de france,
1038703,73124719,Musée de la Bonneterie,,Rue de la Crosse,10000,Troyes,France,fr,open,48.29995,4.082291342005172,,,,2014,2113,4590,01/02/2003,label:musee de france,
5206001,,Musée Municipal,,,,BOURBONNE-LES-BAINS,France,fr,open,,,,,,2014,0,2242,01/02/2003,label:musee de france,
5123001,183978059,Musée Municipal d'Epernay,,D 45,73670,Entremont-le-Vieux,France,fr,closed,45.451615000000004,5.882174889178614,,,,2014,0,0,01/02/2003,label:musee de france,
5145405,7030744259,Musée Hôtel le Vergeur,36,Place du Forum,51100,Reims,France,fr,open,49.2571018,4.0341284,,,,2014,5536,1687,01/02/2003,label:musee de france,
5150702,,Musée de l'Argonne Viard-Morel,,,,SAINTE-MENEHOULD,France,fr,closed,,,,,,2014,0,0,01/02/2003,label:musee de france,
2A00403,66274796,Musée Palais Fesch,50-52,Rue Cardinal Fesch,20000,Ajaccio,France,fr,open,41.9218958,8.738913555286306,,,,2014,23667,16508,01/02/2003,label:musee de france,
2B16901,,Musée Départemental Pascal Paoli,,,,MOROSAGLIA,France,fr,open,,,,,,2014,7304,2503,01/02/2003,label:musee de france,
2505604,7345774098,Musée Comtois,,Chemin de Ronde de la Citadelle,25000,Besançon,France,fr,open,47.2298091,6.034391,,,,2014,0,0,01/02/2003,label:musee de france,
3930002,631011962,Musée des Beaux-Arts,,Place Philibert de Chalon,39000,Lons-le-Saunier,France,fr,open,46.6760636,5.5535325,,,,2014,897,2542,01/02/2003,label:musee de france,
3933301,201412221,Musée du Jouet,5,Rue du Murgin,39260,Moirans-en-Montagne,France,fr,open,46.4325233,5.727012940707623,,,,2014,47105,18976,01/02/2003,label:musee de france,
3950001,151950172,Musée des Salines,,Place des Salines,39110,Salins-les-Bains,France,fr,open,46.9376405,5.8761571935790275,,,,2014,63837,5873,01/02/2003,label:musee de france,
9001002,79763460,Donation Maurice Jardot,8,Rue de Mulhouse,90000,Belfort,France,fr,open,47.6427099,6.8557239777834384,,,,2014,8236,0,01/02/2003,label:musee de france,
9120001,2650356282,Musée du Château,,Rue du Marché aux Grains,91410,Dourdan,France,fr,open,48.5298686,2.0111955,,,,2014,10472,7020,01/02/2003,label:musee de france,
9202301,29036,Fondation Arp,,,92140,Clamart,France,fr,open,48.800368,2.2630292,,,,2014,1303,449,16/12/2003,label:musee de france,
9204802,,Musée - Atelier Rodin (Annexe du musée de Paris),,,,MEUDON,France,fr,open,,,,,,2014,7193,9742,06/01/2002,label:musee de france,
9205101,82241201,Musée des Automates,178,Boulevard Saint-Denis,92400,Courbevoie,France,fr,closed,48.90043675,2.2718533501517357,,,,2014,0,0,01/02/2003,label:musee de france,
9207101,1620203330,Musée du Domaine Départemental de Sceaux,,Allée de la Duchesse,92330,Sceaux,France,fr,open,48.7742577,2.300099,,,,2014,21421,21632,01/02/2003,label:musee de france,
7510508,7444,Galerie d'Anatomie Comparée et de Paléontologie (Muséum d'Histoire Naturelle),,,,Paris,France,fr,open,48.8566969,2.3514616,,,,2014,121711,196071,06/01/2002,label:musee de france,
7510307,2405955,Musée Carnavalet-Histoire de Paris,,Rue Payenne,75003,Paris,France,fr,open,48.85732324999999,2.3624733783107805,,,,2014,77550,360234,08/07/2004,label:musee de france,
7511402,493870538,Les Catacombes,1,Avenue du Colonel Henri Rol Tanguy,75014,Paris,France,fr,open,48.8337437,2.3322959,,,,2014,301204,55558,label:musee de france,
7510501,56640163,Musée du Moyen Age-Thermes et Hôtel de Cluny,6,Place Paul Painlevé,75005,Paris,France,fr,open,48.85064945,2.3435643010185183,,,,2014,151987,165370,06/01/2002,label:musee de france,
7511801,154679327,Musée de Montmartre,,Rue Cortot,75018,Paris,France,fr,open,48.88824985,2.340677614299779,,,,2014,75407,0,01/02/2003,label:musee de france,
7511601,80848762,Musée d'Ennery,,Avenue Foch,75116,Paris,France,fr,open,48.8714924,2.2814348372921613,,,,2014,0,1077,06/01/2002,label:musee de france,
7511617,1191057,Musée Galliera - Musée de la Mode de la ville de Paris,10,Avenue Pierre 1er de Serbie,75116,Paris,France,fr,open,48.8657028,2.2965064253978102,,,,2014,160135,56726,08/07/2004,label:musee de france,
7510703,472159547,Musée National Auguste Rodin,,Rue de Varenne,75007,Paris,France,fr,open,48.85474735,2.3158669998625365,,,,2014,484125,203132,06/01/2002,label:musee de france,
7510301,156973373,Musée de la Chasse et de la Nature,62,Rue des Archives,75003,Paris,France,fr,open,48.86125555,2.358782698354484,,,,2014,22600,30762,01/02/2003,label:musee de france,
7510807,,"Musée Cernuschi, Musée des Arts de l'Asie de la ville de Paris",,,,PARIS,France,fr,open,,,,,,2014,33173,44110,08/07/2004,label:musee de france,
7510305,57745741,Musée National Picasso,5,Rue de Thorigny,75003,Paris,France,fr,open,48.8598698,2.3621151762679444,,,,2014,113366,97452,06/01/2002,label:musee de france,
7510801,,Musée Nissim de Camondo (Union Centrale des Arts Décoratifs),,,,PARIS,France,fr,open,,,,,,2014,33904,13783,06/01/2002,label:musee de france,
7511607,83422695,Musée Bouchard,,Rue Louis Boilly,75016,Paris,France,fr,closed,48.85941225,2.2672551197388042,,,,2014,0,0,01/02/2003,label:musee de france,
7511620,,Musée National du Sport (Transfert à Nice),,,,PARIS,France,fr,closed,,,,,,2014,0,0,16/12/2003,label:musee de france,
7702201,113288014,Musée Départemental de l'Ecole de Barbizon - Auberge Ganne,92,Grande Rue,77630,Barbizon,France,fr,open,48.4461862,2.602608897820088,,,,2014,15618,8336,01/02/2003,label:musee de france,
7713101,7468048677,Musée Municipal des Capucins,,Rue de la Gare,37150,Francueil,France,fr,open,47.3277359,1.0894886,,,,2014,1028,2784,01/02/2003,label:musee de france,
7728802,112363959,Musée d'Art et d'Histoire de Melun,1-3,Rue Émile Leclerc,77000,Melun,France,fr,open,48.54554555,2.6529119346368715,,,,2014,506,5937,01/02/2003,label:musee de france,
9304601,145134117,Musée Municipal,,Rue du Docteur Roux,93190,Livry-Gargan,France,fr,closed,48.934633649999995,2.5517116365355736,,,,2014,0,0,01/02/2003,label:musee de france,
9306601,63992928,Musée d'Art et d'Histoire,,Avenue Amilcar Cabral,93210,Saint-Denis,France,fr,open,48.91430945,2.3603233844227383,,,,2014,2847,17374,01/02/2003,label:musee de france,
9404601,2751882654,Musée Fragonard,,Avenue du Général de Gaulle,94700,Maisons-Alfort,France,fr,open,48.8128139,2.4233528,,,,2014,3267,5055,05/07/2006,label:musee de france,
7832201,413276082,Musée de la Toile de Jouy,54,Rue Charles de Gaulle,78350,Les Loges-en-Josas,France,fr,open,48.76918135,2.1520865703763596,,,,2014,8259,2471,01/02/2003,label:musee de france,
7820801,1290290099,Musée de la Ville,,Quai François Truffaut,78180,Montigny-le-Bretonneux,France,fr,open,48.7831521,2.042426,,,,2014,2400,7144,01/02/2003,label:musee de france,
7855102,,Musée Municipal - Collections Paul et André Véra,,,,SAINT-GERMAIN-EN-LAYE,France,fr,open,,,,,,2014,432,2826,01/02/2003,label:musee de france,
7855101,154883691,Musée Départemental Maurice Denis,2bis,Rue Maurice Denis,78100,Saint-Germain-en-Laye,France,fr,open,48.8925939,2.0868889919163913,,,,2014,6091,20652,01/02/2003,label:musee de france,
7855103,,Musée d'Archéologie Nationale (des origines à l'an mille) - Château de st-Germain-en-Laye,,,,SAINT-GERMAIN-EN-LAYE,France,fr,open,,,,,,2014,22361,90662,06/01/2002,label:musee de france,
9741301,,Muséum Agricole et Industriel Stella Matutina,,,,PITON-SAINT-LEU,France,fr,open,,,,,,2014,0,16789,01/02/2003,label:musee de france,
1104901,1722803126,Eburomagus Musée Archéologique,2,Avenue du Razès,11150,Bram,France,fr,open,43.2438113,2.1161341,,,,2014,985,1213,23/02/2012,label:musee de france,
1137901,,Musée des Corbières,,,,SIGEAN,France,fr,open,,,,,,2014,244,670,01/02/2003,label:musee de france,
3000702,130822767,Musée du Colombier,,Rue Jean Mayodon,30100,Alès,France,fr,open,44.1284065,4.080311817458588,,,,2014,0,12332,01/02/2003,label:musee de france,
3002801,3778245095,Musée Albert André,,Place Auguste Mallet,30200,Bagnols-sur-Cèze,France,fr,open,44.1619056,4.6203171,,,,2014,23,3992,01/02/2003,label:musee de france,
3003201,1754343,Musée Municipal de la Vignasse,,Rue de la Grille,30300,Beaucaire,France,fr,open,43.807104499999994,4.645857409267913,,,,2014,1692,3240,01/02/2003,label:musee de france,
3403201,,Musée des Beaux-Arts de Béziers,,,,BEZIERS,France,fr,open,,,,,,2014,3521,19953,01/02/2003,label:musee de france,
3403203,70070,Muséum d'Histoire Naturelle,,,34500,Béziers,France,fr,closed,43.3426562,3.2131307,,,,2014,0,0,01/02/2003,label:musee de france,
3417203,1226892,Musée Fabre,,Cour de la Mosaïque,34062,Montpellier,France,fr,open,43.6117542,3.8801274326001858,,,,2014,124382,92437,06/01/2002,label:musee de france,
3417206,2192962,Agropolis-Muséum,,Avenue Agropolis,34093,Montpellier,France,fr,closed,43.6462942,3.8679405365376005,,,,2014,0,0,01/02/2003,label:musee de france,
3417901,239313434,Musée Archéologique Paul Soyris,,Rue de la Mairie,34570,Murviel-lès-Montpellier,France,fr,open,43.604634,3.737293733606559,,,,2014,117,332,01/02/2003,label:musee de france,
6604902,2004488993,Musée départemental d'Art Moderne,,Boulevard du Maréchal Joffre,66400,Céret,France,fr,open,42.4859058,2.7484863,,,,2014,47304,16148,01/02/2003,label:musee de france,
6618101,1874518307,Musée de Cerdagne,,Impasse de la Vigne,66800,Sainte-Léocadie,France,fr,open,42.4364819,2.0026983,,,,2014,2636,1327,01/02/2003,label:musee de france,
1927201,,Musée du Cloître de Tulle André Mazeyrie,,,,TULLE,France,fr,open,,,,,,2014,0,9278,01/02/2003,label:musee de france,
8708501,,Musée Municipal des Beaux-Arts de Limoges - Palais de l'Evêché,,,,LIMOGES,France,fr,open,,,,,,2014,2654,38347,18/07/2002,label:musee de france,
5427401,99542401,Musée de l'Histoire du Fer,,Avenue Général de Gaulle,54140,Jarville-la-Malgrange,France,fr,open,48.666507499999994,6.208713471590913,,,,2014,4007,7900,01/02/2003,label:musee de france,
5452801,1198779245,Musée d'Art et d'Histoire de Toul,25,Rue Gouvion Saint-Cyr,54200,Toul,France,fr,open,48.6784079,5.8911945,,,,2014,0,6658,01/02/2003,label:musee de france,
5535101,,Musée Jules Bastien-Lepage - Musée de la Fortification,,,,MONTMEDY,France,fr,open,,,,,,2014,12517,2776,01/02/2003,label:musee de france,
5550202,134231670,Musée de la Bière et du Pays de Stenay,17,Rue du Moulin,55700,Stenay,France,fr,open,49.488918999999996,5.186675922267025,,,,2014,7556,12332,24/02/2003,label:musee de france,
